{
"type": "FeatureCollection",
"name": "amenityNED",
"features": [
{ "type": "Feature", "properties": { "full_id": "n26612532", "addr_house": "325", "amenity": "fire_station", "addr_city": "Amsterdam", "addr_postc": "1093 BS", "addr_stree": "Dapperstraat" }, "geometry": { "type": "Point", "coordinates": [ 4.9291697, 52.3604587 ] } },
{ "type": "Feature", "properties": { "full_id": "n30183014", "addr_house": null, "amenity": "fire_station", "addr_city": null, "addr_postc": null, "addr_stree": null }, "geometry": { "type": "Point", "coordinates": [ 4.8771349, 52.0809475 ] } },
{ "type": "Feature", "properties": { "full_id": "n30217756", "addr_house": null, "amenity": "fire_station", "addr_city": null, "addr_postc": null, "addr_stree": null }, "geometry": { "type": "Point", "coordinates": [ 5.8302947, 50.8654271 ] } },
{ "type": "Feature", "properties": { "full_id": "n105699773", "addr_house": "3", "amenity": "fire_station", "addr_city": "Driebergen-Rijsenburg", "addr_postc": "3971XA", "addr_stree": "Bosstraat" }, "geometry": { "type": "Point", "coordinates": [ 5.2812841, 52.0534435 ] } },
{ "type": "Feature", "properties": { "full_id": "n148554530", "addr_house": null, "amenity": "fire_station", "addr_city": null, "addr_postc": null, "addr_stree": null }, "geometry": { "type": "Point", "coordinates": [ 4.0684889, 51.7688172 ] } },
{ "type": "Feature", "properties": { "full_id": "n252694398", "addr_house": null, "amenity": "fire_station", "addr_city": null, "addr_postc": null, "addr_stree": null }, "geometry": { "type": "Point", "coordinates": [ 3.8238259, 51.4925142 ] } },
{ "type": "Feature", "properties": { "full_id": "n274866790", "addr_house": null, "amenity": "fire_station", "addr_city": null, "addr_postc": null, "addr_stree": null }, "geometry": { "type": "Point", "coordinates": [ 5.6491046, 52.0200872 ] } },
{ "type": "Feature", "properties": { "full_id": "n276552349", "addr_house": null, "amenity": "fire_station", "addr_city": null, "addr_postc": null, "addr_stree": null }, "geometry": { "type": "Point", "coordinates": [ 3.8317765, 51.2312686 ] } },
{ "type": "Feature", "properties": { "full_id": "n286540971", "addr_house": "1a", "amenity": "fire_station", "addr_city": "Kockengen", "addr_postc": "3628AZ", "addr_stree": "Sportweg" }, "geometry": { "type": "Point", "coordinates": [ 4.9563765, 52.1481908 ] } },
{ "type": "Feature", "properties": { "full_id": "n286559493", "addr_house": "5", "amenity": "fire_station", "addr_city": "Breukelen", "addr_postc": "3621AD", "addr_stree": "Brouwerij" }, "geometry": { "type": "Point", "coordinates": [ 5.0047268, 52.1712471 ] } },
{ "type": "Feature", "properties": { "full_id": "n286805232", "addr_house": null, "amenity": "fire_station", "addr_city": null, "addr_postc": null, "addr_stree": null }, "geometry": { "type": "Point", "coordinates": [ 3.7969831, 51.2277963 ] } },
{ "type": "Feature", "properties": { "full_id": "n311202182", "addr_house": null, "amenity": "fire_station", "addr_city": null, "addr_postc": null, "addr_stree": null }, "geometry": { "type": "Point", "coordinates": [ 3.7810708, 51.3016085 ] } },
{ "type": "Feature", "properties": { "full_id": "n315305795", "addr_house": "7", "amenity": "fire_station", "addr_city": "Den Hoorn", "addr_postc": "2635CG", "addr_stree": "Woudseweg" }, "geometry": { "type": "Point", "coordinates": [ 4.3285083, 51.999004 ] } },
{ "type": "Feature", "properties": { "full_id": "n331946632", "addr_house": null, "amenity": "fire_station", "addr_city": null, "addr_postc": null, "addr_stree": null }, "geometry": { "type": "Point", "coordinates": [ 6.8892379, 52.6635347 ] } },
{ "type": "Feature", "properties": { "full_id": "n350176321", "addr_house": null, "amenity": "fire_station", "addr_city": null, "addr_postc": null, "addr_stree": null }, "geometry": { "type": "Point", "coordinates": [ 5.0499612, 52.0160206 ] } },
{ "type": "Feature", "properties": { "full_id": "n361191114", "addr_house": "10", "amenity": "fire_station", "addr_city": "Utrecht", "addr_postc": "3544NG", "addr_stree": "Belcampostraat" }, "geometry": { "type": "Point", "coordinates": [ 5.0567993, 52.0978833 ] } },
{ "type": "Feature", "properties": { "full_id": "n395228630", "addr_house": "22", "amenity": "fire_station", "addr_city": "Vianen", "addr_postc": "4132CD", "addr_stree": "Aimé Bonnastraat" }, "geometry": { "type": "Point", "coordinates": [ 5.0944679, 51.9909489 ] } },
{ "type": "Feature", "properties": { "full_id": "n439212542", "addr_house": null, "amenity": "fire_station", "addr_city": null, "addr_postc": null, "addr_stree": null }, "geometry": { "type": "Point", "coordinates": [ 5.2432496, 51.8018799 ] } },
{ "type": "Feature", "properties": { "full_id": "n439291801", "addr_house": null, "amenity": "fire_station", "addr_city": null, "addr_postc": null, "addr_stree": null }, "geometry": { "type": "Point", "coordinates": [ 4.2736297, 52.1018832 ] } },
{ "type": "Feature", "properties": { "full_id": "n440663472", "addr_house": null, "amenity": "fire_station", "addr_city": null, "addr_postc": null, "addr_stree": null }, "geometry": { "type": "Point", "coordinates": [ 5.9291323, 52.9465979 ] } },
{ "type": "Feature", "properties": { "full_id": "n441097951", "addr_house": null, "amenity": "fire_station", "addr_city": null, "addr_postc": null, "addr_stree": null }, "geometry": { "type": "Point", "coordinates": [ 5.2099337, 51.7980021 ] } },
{ "type": "Feature", "properties": { "full_id": "n443025218", "addr_house": "45", "amenity": "fire_station", "addr_city": "Utrecht", "addr_postc": "3555ED", "addr_stree": "Burgemeester Norbruislaan" }, "geometry": { "type": "Point", "coordinates": [ 5.0763053, 52.1196442 ] } },
{ "type": "Feature", "properties": { "full_id": "n443025221", "addr_house": "100", "amenity": "fire_station", "addr_city": "Utrecht", "addr_postc": "3534AR", "addr_stree": "Vlampijpstraat" }, "geometry": { "type": "Point", "coordinates": [ 5.0875272, 52.1031787 ] } },
{ "type": "Feature", "properties": { "full_id": "n448617680", "addr_house": "135", "amenity": "fire_station", "addr_city": "Helmond", "addr_postc": "5701CE", "addr_stree": "Deurneseweg" }, "geometry": { "type": "Point", "coordinates": [ 5.674584, 51.4759465 ] } },
{ "type": "Feature", "properties": { "full_id": "n448951337", "addr_house": null, "amenity": "fire_station", "addr_city": null, "addr_postc": null, "addr_stree": null }, "geometry": { "type": "Point", "coordinates": [ 5.7836477, 53.3051108 ] } },
{ "type": "Feature", "properties": { "full_id": "n459694127", "addr_house": null, "amenity": "fire_station", "addr_city": null, "addr_postc": null, "addr_stree": null }, "geometry": { "type": "Point", "coordinates": [ 4.868463, 52.0240784 ] } },
{ "type": "Feature", "properties": { "full_id": "n460374282", "addr_house": null, "amenity": "fire_station", "addr_city": null, "addr_postc": null, "addr_stree": null }, "geometry": { "type": "Point", "coordinates": [ 6.9022217, 52.41118 ] } },
{ "type": "Feature", "properties": { "full_id": "n464625458", "addr_house": "17A", "amenity": "fire_station", "addr_city": "De Meern", "addr_postc": "3454HM", "addr_stree": "Meerndijk" }, "geometry": { "type": "Point", "coordinates": [ 5.0360872, 52.0814141 ] } },
{ "type": "Feature", "properties": { "full_id": "n469752243", "addr_house": null, "amenity": "fire_station", "addr_city": null, "addr_postc": null, "addr_stree": null }, "geometry": { "type": "Point", "coordinates": [ 6.0628217, 51.9259737 ] } },
{ "type": "Feature", "properties": { "full_id": "n471020077", "addr_house": "1", "amenity": "fire_station", "addr_city": "Sint-Oedenrode", "addr_postc": "5491GD", "addr_stree": "Van Rijckevorsel van Kessellaan" }, "geometry": { "type": "Point", "coordinates": [ 5.4602111, 51.5687333 ] } },
{ "type": "Feature", "properties": { "full_id": "n495214622", "addr_house": null, "amenity": "fire_station", "addr_city": null, "addr_postc": null, "addr_stree": null }, "geometry": { "type": "Point", "coordinates": [ 5.2828535, 52.2152358 ] } },
{ "type": "Feature", "properties": { "full_id": "n502778664", "addr_house": null, "amenity": "fire_station", "addr_city": null, "addr_postc": null, "addr_stree": null }, "geometry": { "type": "Point", "coordinates": [ 5.1209213, 51.9262055 ] } },
{ "type": "Feature", "properties": { "full_id": "n504806000", "addr_house": null, "amenity": "fire_station", "addr_city": null, "addr_postc": null, "addr_stree": null }, "geometry": { "type": "Point", "coordinates": [ 5.1213912, 51.9803924 ] } },
{ "type": "Feature", "properties": { "full_id": "n506512224", "addr_house": "1", "amenity": "fire_station", "addr_city": "Oldenzaal", "addr_postc": "7572 BT", "addr_stree": "Ossenmaatstraat" }, "geometry": { "type": "Point", "coordinates": [ 6.9122968, 52.3074966 ] } },
{ "type": "Feature", "properties": { "full_id": "n513291621", "addr_house": "63A", "amenity": "fire_station", "addr_city": "Diepenveen", "addr_postc": "7431AB", "addr_stree": "Oranjelaan" }, "geometry": { "type": "Point", "coordinates": [ 6.1476755, 52.2859515 ] } },
{ "type": "Feature", "properties": { "full_id": "n514518060", "addr_house": null, "amenity": "fire_station", "addr_city": null, "addr_postc": null, "addr_stree": null }, "geometry": { "type": "Point", "coordinates": [ 6.5260307, 53.2250927 ] } },
{ "type": "Feature", "properties": { "full_id": "n521229784", "addr_house": null, "amenity": "fire_station", "addr_city": null, "addr_postc": null, "addr_stree": null }, "geometry": { "type": "Point", "coordinates": [ 5.0949433, 52.7640161 ] } },
{ "type": "Feature", "properties": { "full_id": "n522082538", "addr_house": "19", "amenity": "fire_station", "addr_city": "Geffen", "addr_postc": "5386KW", "addr_stree": "Groenstraat" }, "geometry": { "type": "Point", "coordinates": [ 5.4625649, 51.7339964 ] } },
{ "type": "Feature", "properties": { "full_id": "n542641101", "addr_house": null, "amenity": "fire_station", "addr_city": null, "addr_postc": null, "addr_stree": null }, "geometry": { "type": "Point", "coordinates": [ 4.7628623, 51.5897177 ] } },
{ "type": "Feature", "properties": { "full_id": "n553540176", "addr_house": "51", "amenity": "fire_station", "addr_city": "Delft", "addr_postc": "2613NW", "addr_stree": "Krakeelpolderweg" }, "geometry": { "type": "Point", "coordinates": [ 4.3532315, 52.002536 ] } },
{ "type": "Feature", "properties": { "full_id": "n562650235", "addr_house": null, "amenity": "fire_station", "addr_city": null, "addr_postc": null, "addr_stree": null }, "geometry": { "type": "Point", "coordinates": [ 5.9554656, 52.2149308 ] } },
{ "type": "Feature", "properties": { "full_id": "n577538384", "addr_house": null, "amenity": "fire_station", "addr_city": null, "addr_postc": null, "addr_stree": null }, "geometry": { "type": "Point", "coordinates": [ 6.0931842, 51.3318116 ] } },
{ "type": "Feature", "properties": { "full_id": "n583385519", "addr_house": null, "amenity": "fire_station", "addr_city": null, "addr_postc": null, "addr_stree": null }, "geometry": { "type": "Point", "coordinates": [ 4.8424806, 52.110541 ] } },
{ "type": "Feature", "properties": { "full_id": "n597568258", "addr_house": null, "amenity": "fire_station", "addr_city": null, "addr_postc": null, "addr_stree": null }, "geometry": { "type": "Point", "coordinates": [ 5.9765239, 52.2922307 ] } },
{ "type": "Feature", "properties": { "full_id": "n599726876", "addr_house": null, "amenity": "fire_station", "addr_city": null, "addr_postc": null, "addr_stree": null }, "geometry": { "type": "Point", "coordinates": [ 4.1054948, 51.5945503 ] } },
{ "type": "Feature", "properties": { "full_id": "n599810321", "addr_house": null, "amenity": "fire_station", "addr_city": null, "addr_postc": null, "addr_stree": null }, "geometry": { "type": "Point", "coordinates": [ 4.8043535, 52.8893872 ] } },
{ "type": "Feature", "properties": { "full_id": "n602150164", "addr_house": null, "amenity": "fire_station", "addr_city": null, "addr_postc": null, "addr_stree": null }, "geometry": { "type": "Point", "coordinates": [ 6.1168862, 52.7821407 ] } },
{ "type": "Feature", "properties": { "full_id": "n629030561", "addr_house": null, "amenity": "fire_station", "addr_city": null, "addr_postc": null, "addr_stree": null }, "geometry": { "type": "Point", "coordinates": [ 5.7196455, 52.9599401 ] } },
{ "type": "Feature", "properties": { "full_id": "n631288743", "addr_house": null, "amenity": "fire_station", "addr_city": null, "addr_postc": null, "addr_stree": null }, "geometry": { "type": "Point", "coordinates": [ 5.783771, 52.3826613 ] } },
{ "type": "Feature", "properties": { "full_id": "n648087598", "addr_house": "64", "amenity": "fire_station", "addr_city": "Boekel", "addr_postc": "5427DE", "addr_stree": "De Vlonder" }, "geometry": { "type": "Point", "coordinates": [ 5.6717559, 51.6066169 ] } },
{ "type": "Feature", "properties": { "full_id": "n650169026", "addr_house": "5", "amenity": "fire_station", "addr_city": "Haren Gn", "addr_postc": "9752LA", "addr_stree": "Westerse Drift" }, "geometry": { "type": "Point", "coordinates": [ 6.5996783, 53.1710324 ] } },
{ "type": "Feature", "properties": { "full_id": "n655197369", "addr_house": null, "amenity": "fire_station", "addr_city": null, "addr_postc": null, "addr_stree": null }, "geometry": { "type": "Point", "coordinates": [ 6.7927398, 53.2094539 ] } },
{ "type": "Feature", "properties": { "full_id": "n659792901", "addr_house": null, "amenity": "fire_station", "addr_city": null, "addr_postc": null, "addr_stree": null }, "geometry": { "type": "Point", "coordinates": [ 5.2406761, 52.6933063 ] } },
{ "type": "Feature", "properties": { "full_id": "n662656516", "addr_house": "1002", "amenity": "fire_station", "addr_city": "Arkel", "addr_postc": "4241WB", "addr_stree": "Vlietskade" }, "geometry": { "type": "Point", "coordinates": [ 4.9953991, 51.868312 ] } },
{ "type": "Feature", "properties": { "full_id": "n663946608", "addr_house": "1", "amenity": "fire_station", "addr_city": "Heenvliet", "addr_postc": "3218XT", "addr_stree": "Polyanderweg" }, "geometry": { "type": "Point", "coordinates": [ 4.2353564, 51.8626452 ] } },
{ "type": "Feature", "properties": { "full_id": "n703046058", "addr_house": "2", "amenity": "fire_station", "addr_city": "Harmelen", "addr_postc": "3481EC", "addr_stree": "Pompersplein" }, "geometry": { "type": "Point", "coordinates": [ 4.9608144, 52.0906744 ] } },
{ "type": "Feature", "properties": { "full_id": "n703271615", "addr_house": null, "amenity": "fire_station", "addr_city": null, "addr_postc": null, "addr_stree": null }, "geometry": { "type": "Point", "coordinates": [ 3.9355057, 51.8111523 ] } },
{ "type": "Feature", "properties": { "full_id": "n707019029", "addr_house": null, "amenity": "fire_station", "addr_city": null, "addr_postc": null, "addr_stree": null }, "geometry": { "type": "Point", "coordinates": [ 4.5334652, 51.6622178 ] } },
{ "type": "Feature", "properties": { "full_id": "n732315466", "addr_house": "17", "amenity": "fire_station", "addr_city": "Rijssen", "addr_postc": "7462AE", "addr_stree": "Molenstalweg" }, "geometry": { "type": "Point", "coordinates": [ 6.5175578, 52.3107464 ] } },
{ "type": "Feature", "properties": { "full_id": "n748488058", "addr_house": "3a", "amenity": "fire_station", "addr_city": "Havelte", "addr_postc": "7971 BJ", "addr_stree": "Molenweg" }, "geometry": { "type": "Point", "coordinates": [ 6.2326234, 52.7731161 ] } },
{ "type": "Feature", "properties": { "full_id": "n759639874", "addr_house": null, "amenity": "fire_station", "addr_city": null, "addr_postc": null, "addr_stree": null }, "geometry": { "type": "Point", "coordinates": [ 4.893088, 52.1150375 ] } },
{ "type": "Feature", "properties": { "full_id": "n759801431", "addr_house": null, "amenity": "fire_station", "addr_city": null, "addr_postc": null, "addr_stree": null }, "geometry": { "type": "Point", "coordinates": [ 5.0990417, 51.8791581 ] } },
{ "type": "Feature", "properties": { "full_id": "n762763278", "addr_house": null, "amenity": "fire_station", "addr_city": null, "addr_postc": null, "addr_stree": null }, "geometry": { "type": "Point", "coordinates": [ 6.631818, 52.1314043 ] } },
{ "type": "Feature", "properties": { "full_id": "n784067822", "addr_house": null, "amenity": "fire_station", "addr_city": null, "addr_postc": null, "addr_stree": null }, "geometry": { "type": "Point", "coordinates": [ 6.4898892, 53.1543089 ] } },
{ "type": "Feature", "properties": { "full_id": "n797461837", "addr_house": null, "amenity": "fire_station", "addr_city": null, "addr_postc": null, "addr_stree": null }, "geometry": { "type": "Point", "coordinates": [ 5.490805, 51.404072 ] } },
{ "type": "Feature", "properties": { "full_id": "n800359167", "addr_house": null, "amenity": "fire_station", "addr_city": null, "addr_postc": null, "addr_stree": null }, "geometry": { "type": "Point", "coordinates": [ 4.6014168, 51.9179656 ] } },
{ "type": "Feature", "properties": { "full_id": "n803598614", "addr_house": null, "amenity": "fire_station", "addr_city": null, "addr_postc": null, "addr_stree": null }, "geometry": { "type": "Point", "coordinates": [ 5.945086, 50.9312622 ] } },
{ "type": "Feature", "properties": { "full_id": "n806592054", "addr_house": null, "amenity": "fire_station", "addr_city": null, "addr_postc": null, "addr_stree": null }, "geometry": { "type": "Point", "coordinates": [ 5.7766124, 50.9673563 ] } },
{ "type": "Feature", "properties": { "full_id": "n812583404", "addr_house": null, "amenity": "fire_station", "addr_city": null, "addr_postc": null, "addr_stree": null }, "geometry": { "type": "Point", "coordinates": [ 5.5229909, 53.0733024 ] } },
{ "type": "Feature", "properties": { "full_id": "n835165598", "addr_house": "37", "amenity": "fire_station", "addr_city": "Nistelrode", "addr_postc": "5388RG", "addr_stree": "Heescheweg" }, "geometry": { "type": "Point", "coordinates": [ 5.5563285, 51.7152412 ] } },
{ "type": "Feature", "properties": { "full_id": "n844166242", "addr_house": "34", "amenity": "fire_station", "addr_city": "Wateringen", "addr_postc": "2291HR", "addr_stree": "Dorpskade" }, "geometry": { "type": "Point", "coordinates": [ 4.2754586, 52.0220791 ] } },
{ "type": "Feature", "properties": { "full_id": "n850700950", "addr_house": null, "amenity": "fire_station", "addr_city": null, "addr_postc": null, "addr_stree": null }, "geometry": { "type": "Point", "coordinates": [ 4.8798426, 52.3313165 ] } },
{ "type": "Feature", "properties": { "full_id": "n857711488", "addr_house": null, "amenity": "fire_station", "addr_city": null, "addr_postc": null, "addr_stree": null }, "geometry": { "type": "Point", "coordinates": [ 4.0935227, 51.7452728 ] } },
{ "type": "Feature", "properties": { "full_id": "n860242939", "addr_house": null, "amenity": "fire_station", "addr_city": null, "addr_postc": null, "addr_stree": null }, "geometry": { "type": "Point", "coordinates": [ 5.1664149, 51.3609848 ] } },
{ "type": "Feature", "properties": { "full_id": "n876243968", "addr_house": null, "amenity": "fire_station", "addr_city": null, "addr_postc": null, "addr_stree": null }, "geometry": { "type": "Point", "coordinates": [ 6.2035156, 51.9634948 ] } },
{ "type": "Feature", "properties": { "full_id": "n890465402", "addr_house": "35", "amenity": "fire_station", "addr_city": "Velsen-Zuid", "addr_postc": "1981AE", "addr_stree": "'s Gravenlust" }, "geometry": { "type": "Point", "coordinates": [ 4.6502004, 52.4600034 ] } },
{ "type": "Feature", "properties": { "full_id": "n890465403", "addr_house": "1", "amenity": "fire_station", "addr_city": "Beverwijk", "addr_postc": "1947LA", "addr_stree": "Spoorsingel" }, "geometry": { "type": "Point", "coordinates": [ 4.6671839, 52.4830857 ] } },
{ "type": "Feature", "properties": { "full_id": "n900857032", "addr_house": null, "amenity": "fire_station", "addr_city": null, "addr_postc": null, "addr_stree": null }, "geometry": { "type": "Point", "coordinates": [ 6.7516104, 52.8516513 ] } },
{ "type": "Feature", "properties": { "full_id": "n903887148", "addr_house": "4", "amenity": "fire_station", "addr_city": "Kerkrade", "addr_postc": "6466XV", "addr_stree": "Hammolenweg" }, "geometry": { "type": "Point", "coordinates": [ 6.0540243, 50.8678494 ] } },
{ "type": "Feature", "properties": { "full_id": "n922415138", "addr_house": null, "amenity": "fire_station", "addr_city": null, "addr_postc": null, "addr_stree": null }, "geometry": { "type": "Point", "coordinates": [ 4.6000748, 52.4522473 ] } },
{ "type": "Feature", "properties": { "full_id": "n933602591", "addr_house": null, "amenity": "fire_station", "addr_city": null, "addr_postc": null, "addr_stree": null }, "geometry": { "type": "Point", "coordinates": [ 6.0482617, 52.6223362 ] } },
{ "type": "Feature", "properties": { "full_id": "n939315177", "addr_house": null, "amenity": "fire_station", "addr_city": null, "addr_postc": null, "addr_stree": null }, "geometry": { "type": "Point", "coordinates": [ 6.3160157, 52.8550196 ] } },
{ "type": "Feature", "properties": { "full_id": "n942629564", "addr_house": null, "amenity": "fire_station", "addr_city": null, "addr_postc": null, "addr_stree": null }, "geometry": { "type": "Point", "coordinates": [ 4.6498333, 52.4924889 ] } },
{ "type": "Feature", "properties": { "full_id": "n953584397", "addr_house": null, "amenity": "fire_station", "addr_city": null, "addr_postc": null, "addr_stree": null }, "geometry": { "type": "Point", "coordinates": [ 6.2062395, 52.3298892 ] } },
{ "type": "Feature", "properties": { "full_id": "n978773207", "addr_house": "102", "amenity": "fire_station", "addr_city": "Den Burg", "addr_postc": "1791LB", "addr_stree": "Pontweg" }, "geometry": { "type": "Point", "coordinates": [ 4.7867217, 53.0557762 ] } },
{ "type": "Feature", "properties": { "full_id": "n981676398", "addr_house": "2A", "amenity": "fire_station", "addr_city": "Hengelo", "addr_postc": "7559PJ", "addr_stree": "Torenlaan" }, "geometry": { "type": "Point", "coordinates": [ 6.81436, 52.2846266 ] } },
{ "type": "Feature", "properties": { "full_id": "n988579644", "addr_house": null, "amenity": "fire_station", "addr_city": null, "addr_postc": null, "addr_stree": null }, "geometry": { "type": "Point", "coordinates": [ 6.5780207, 51.9872654 ] } },
{ "type": "Feature", "properties": { "full_id": "n988973442", "addr_house": "3", "amenity": "fire_station", "addr_city": "Noordeloos", "addr_postc": null, "addr_stree": "De Vort" }, "geometry": { "type": "Point", "coordinates": [ 4.9494005, 51.8849749 ] } },
{ "type": "Feature", "properties": { "full_id": "n989179910", "addr_house": null, "amenity": "fire_station", "addr_city": null, "addr_postc": null, "addr_stree": null }, "geometry": { "type": "Point", "coordinates": [ 6.0501218, 51.2931407 ] } },
{ "type": "Feature", "properties": { "full_id": "n995120041", "addr_house": null, "amenity": "fire_station", "addr_city": null, "addr_postc": null, "addr_stree": null }, "geometry": { "type": "Point", "coordinates": [ 4.8092217, 52.4902693 ] } },
{ "type": "Feature", "properties": { "full_id": "n1037064919", "addr_house": null, "amenity": "fire_station", "addr_city": null, "addr_postc": null, "addr_stree": null }, "geometry": { "type": "Point", "coordinates": [ 5.5720082, 51.9369891 ] } },
{ "type": "Feature", "properties": { "full_id": "n1037070066", "addr_house": null, "amenity": "fire_station", "addr_city": null, "addr_postc": null, "addr_stree": null }, "geometry": { "type": "Point", "coordinates": [ 5.6252651, 51.9333237 ] } },
{ "type": "Feature", "properties": { "full_id": "n1037086478", "addr_house": null, "amenity": "fire_station", "addr_city": null, "addr_postc": null, "addr_stree": null }, "geometry": { "type": "Point", "coordinates": [ 5.6591171, 51.9102432 ] } },
{ "type": "Feature", "properties": { "full_id": "n1124677205", "addr_house": "1", "amenity": "fire_station", "addr_city": "Ter Apel", "addr_postc": "9561KD", "addr_stree": "Heemker Akkerstraat" }, "geometry": { "type": "Point", "coordinates": [ 7.0635266, 52.8752196 ] } },
{ "type": "Feature", "properties": { "full_id": "n1124677281", "addr_house": null, "amenity": "fire_station", "addr_city": null, "addr_postc": null, "addr_stree": null }, "geometry": { "type": "Point", "coordinates": [ 6.8813111, 53.2485856 ] } },
{ "type": "Feature", "properties": { "full_id": "n1125336330", "addr_house": null, "amenity": "fire_station", "addr_city": null, "addr_postc": null, "addr_stree": null }, "geometry": { "type": "Point", "coordinates": [ 6.6474738, 52.9843743 ] } },
{ "type": "Feature", "properties": { "full_id": "n1139360975", "addr_house": null, "amenity": "fire_station", "addr_city": null, "addr_postc": null, "addr_stree": null }, "geometry": { "type": "Point", "coordinates": [ 4.9095912, 52.3702813 ] } },
{ "type": "Feature", "properties": { "full_id": "n1195577034", "addr_house": "180", "amenity": "fire_station", "addr_city": "Rotterdam", "addr_postc": "3081CM", "addr_stree": "Mijnsherenlaan" }, "geometry": { "type": "Point", "coordinates": [ 4.4897391, 51.8909493 ] } },
{ "type": "Feature", "properties": { "full_id": "n1297607454", "addr_house": null, "amenity": "fire_station", "addr_city": null, "addr_postc": null, "addr_stree": null }, "geometry": { "type": "Point", "coordinates": [ 5.0677431, 52.0279256 ] } },
{ "type": "Feature", "properties": { "full_id": "n1311060415", "addr_house": "51", "amenity": "fire_station", "addr_city": "West-Terschelling", "addr_postc": "8881AS", "addr_stree": "Burgemeester Eschauzierstraat" }, "geometry": { "type": "Point", "coordinates": [ 5.2139807, 53.360901 ] } },
{ "type": "Feature", "properties": { "full_id": "n1315972467", "addr_house": null, "amenity": "fire_station", "addr_city": null, "addr_postc": null, "addr_stree": null }, "geometry": { "type": "Point", "coordinates": [ 4.6986602, 52.836137 ] } },
{ "type": "Feature", "properties": { "full_id": "n1321491310", "addr_house": "1", "amenity": "fire_station", "addr_city": "Wierden", "addr_postc": "7641CJ", "addr_stree": "Tulpenstraat" }, "geometry": { "type": "Point", "coordinates": [ 6.5966447, 52.3599412 ] } },
{ "type": "Feature", "properties": { "full_id": "n1341544272", "addr_house": null, "amenity": "fire_station", "addr_city": null, "addr_postc": null, "addr_stree": null }, "geometry": { "type": "Point", "coordinates": [ 5.4238968, 52.0752325 ] } },
{ "type": "Feature", "properties": { "full_id": "n1345667871", "addr_house": null, "amenity": "fire_station", "addr_city": null, "addr_postc": null, "addr_stree": null }, "geometry": { "type": "Point", "coordinates": [ 5.8275002, 53.0933943 ] } },
{ "type": "Feature", "properties": { "full_id": "n1348021548", "addr_house": "10a", "amenity": "fire_station", "addr_city": "Ruurlo", "addr_postc": "7261AN", "addr_stree": "Groenloseweg" }, "geometry": { "type": "Point", "coordinates": [ 6.4530025, 52.0837316 ] } },
{ "type": "Feature", "properties": { "full_id": "n1368857018", "addr_house": "27", "amenity": "fire_station", "addr_city": "Zuidland", "addr_postc": "3214VC", "addr_stree": "Kerkweg" }, "geometry": { "type": "Point", "coordinates": [ 4.2512099, 51.8215012 ] } },
{ "type": "Feature", "properties": { "full_id": "n1375268495", "addr_house": null, "amenity": "fire_station", "addr_city": null, "addr_postc": null, "addr_stree": null }, "geometry": { "type": "Point", "coordinates": [ 6.2875246, 52.2521067 ] } },
{ "type": "Feature", "properties": { "full_id": "n1379444477", "addr_house": null, "amenity": "fire_station", "addr_city": null, "addr_postc": null, "addr_stree": null }, "geometry": { "type": "Point", "coordinates": [ 3.8484472, 51.2908929 ] } },
{ "type": "Feature", "properties": { "full_id": "n1386223008", "addr_house": null, "amenity": "fire_station", "addr_city": null, "addr_postc": null, "addr_stree": null }, "geometry": { "type": "Point", "coordinates": [ 4.6004618, 52.3198569 ] } },
{ "type": "Feature", "properties": { "full_id": "n1403711104", "addr_house": "211B", "amenity": "fire_station", "addr_city": "De Cocksdorp", "addr_postc": "1795JN", "addr_stree": "Postweg" }, "geometry": { "type": "Point", "coordinates": [ 4.8603833, 53.1472575 ] } },
{ "type": "Feature", "properties": { "full_id": "n1435800676", "addr_house": null, "amenity": "fire_station", "addr_city": null, "addr_postc": null, "addr_stree": null }, "geometry": { "type": "Point", "coordinates": [ 4.9715384, 52.2689721 ] } },
{ "type": "Feature", "properties": { "full_id": "n1440984174", "addr_house": "3", "amenity": "fire_station", "addr_city": "Kollum", "addr_postc": "9291BV", "addr_stree": "Tochmalaan" }, "geometry": { "type": "Point", "coordinates": [ 6.1411383, 53.2803498 ] } },
{ "type": "Feature", "properties": { "full_id": "n1452917126", "addr_house": null, "amenity": "fire_station", "addr_city": null, "addr_postc": null, "addr_stree": null }, "geometry": { "type": "Point", "coordinates": [ 4.244247, 51.9033972 ] } },
{ "type": "Feature", "properties": { "full_id": "n1459829405", "addr_house": "10A", "amenity": "fire_station", "addr_city": "Putten", "addr_postc": "3881CB", "addr_stree": "Kelnarijstraat" }, "geometry": { "type": "Point", "coordinates": [ 5.6090997, 52.2616403 ] } },
{ "type": "Feature", "properties": { "full_id": "n1496229311", "addr_house": null, "amenity": "fire_station", "addr_city": null, "addr_postc": null, "addr_stree": null }, "geometry": { "type": "Point", "coordinates": [ 4.9159291, 51.5876249 ] } },
{ "type": "Feature", "properties": { "full_id": "n1497761082", "addr_house": "97", "amenity": "fire_station", "addr_city": "Vleuten", "addr_postc": "3451WE", "addr_stree": "Gouden Koetslaan" }, "geometry": { "type": "Point", "coordinates": [ 5.0119483, 52.0995651 ] } },
{ "type": "Feature", "properties": { "full_id": "n1502114703", "addr_house": null, "amenity": "fire_station", "addr_city": null, "addr_postc": null, "addr_stree": null }, "geometry": { "type": "Point", "coordinates": [ 5.1010077, 51.8326926 ] } },
{ "type": "Feature", "properties": { "full_id": "n1551610472", "addr_house": "6", "amenity": "fire_station", "addr_city": "Joure", "addr_postc": "8501ZR", "addr_stree": "Tolhûswei" }, "geometry": { "type": "Point", "coordinates": [ 5.7935358, 52.970874 ] } },
{ "type": "Feature", "properties": { "full_id": "n1569619964", "addr_house": "34", "amenity": "fire_station", "addr_city": "Emmeloord", "addr_postc": "8301AD", "addr_stree": "Nijverheidstraat" }, "geometry": { "type": "Point", "coordinates": [ 5.7480471, 52.7068038 ] } },
{ "type": "Feature", "properties": { "full_id": "n1578107265", "addr_house": null, "amenity": "fire_station", "addr_city": null, "addr_postc": null, "addr_stree": null }, "geometry": { "type": "Point", "coordinates": [ 5.4495179, 52.9750575 ] } },
{ "type": "Feature", "properties": { "full_id": "n1618230174", "addr_house": "65", "amenity": "fire_station", "addr_city": "Weesp", "addr_postc": "1381CZ", "addr_stree": "Aetsveldselaan" }, "geometry": { "type": "Point", "coordinates": [ 5.0449773, 52.3025707 ] } },
{ "type": "Feature", "properties": { "full_id": "n1625364365", "addr_house": null, "amenity": "fire_station", "addr_city": null, "addr_postc": null, "addr_stree": null }, "geometry": { "type": "Point", "coordinates": [ 6.2057728, 52.6443519 ] } },
{ "type": "Feature", "properties": { "full_id": "n1635591389", "addr_house": null, "amenity": "fire_station", "addr_city": null, "addr_postc": null, "addr_stree": null }, "geometry": { "type": "Point", "coordinates": [ 6.7323556, 53.0559515 ] } },
{ "type": "Feature", "properties": { "full_id": "n1635591394", "addr_house": null, "amenity": "fire_station", "addr_city": null, "addr_postc": null, "addr_stree": null }, "geometry": { "type": "Point", "coordinates": [ 6.8427891, 52.988416 ] } },
{ "type": "Feature", "properties": { "full_id": "n1635591406", "addr_house": null, "amenity": "fire_station", "addr_city": null, "addr_postc": null, "addr_stree": null }, "geometry": { "type": "Point", "coordinates": [ 6.3912883, 53.0398417 ] } },
{ "type": "Feature", "properties": { "full_id": "n1636816497", "addr_house": null, "amenity": "fire_station", "addr_city": null, "addr_postc": null, "addr_stree": null }, "geometry": { "type": "Point", "coordinates": [ 5.8894204, 51.1086372 ] } },
{ "type": "Feature", "properties": { "full_id": "n1636993815", "addr_house": "107", "amenity": "fire_station", "addr_city": "Vinkeveen", "addr_postc": "3645DJ", "addr_stree": "Herenweg" }, "geometry": { "type": "Point", "coordinates": [ 4.9336163, 52.2167918 ] } },
{ "type": "Feature", "properties": { "full_id": "n1639859843", "addr_house": "38", "amenity": "fire_station", "addr_city": "Nes", "addr_postc": "9163GB", "addr_stree": "Ballumerweg" }, "geometry": { "type": "Point", "coordinates": [ 5.7631608, 53.4466373 ] } },
{ "type": "Feature", "properties": { "full_id": "n1642476500", "addr_house": "43", "amenity": "fire_station", "addr_city": "Vlieland", "addr_postc": "8899AT", "addr_stree": "Willem de Vlaminghweg" }, "geometry": { "type": "Point", "coordinates": [ 5.0676515, 53.2965158 ] } },
{ "type": "Feature", "properties": { "full_id": "n1642986272", "addr_house": null, "amenity": "fire_station", "addr_city": null, "addr_postc": null, "addr_stree": null }, "geometry": { "type": "Point", "coordinates": [ 5.429485, 52.1283227 ] } },
{ "type": "Feature", "properties": { "full_id": "n1683811886", "addr_house": "11", "amenity": "fire_station", "addr_city": "Utrecht", "addr_postc": "3573PW", "addr_stree": "Sartreweg" }, "geometry": { "type": "Point", "coordinates": [ 5.1445586, 52.1062333 ] } },
{ "type": "Feature", "properties": { "full_id": "n1693720565", "addr_house": "3", "amenity": "fire_station", "addr_city": "Duiven", "addr_postc": "6921PM", "addr_stree": "Ploenstraat" }, "geometry": { "type": "Point", "coordinates": [ 6.0196404, 51.9518681 ] } },
{ "type": "Feature", "properties": { "full_id": "n1699452851", "addr_house": "9", "amenity": "fire_station", "addr_city": null, "addr_postc": null, "addr_stree": "Westerzeedijk" }, "geometry": { "type": "Point", "coordinates": [ 5.4167382, 53.1696708 ] } },
{ "type": "Feature", "properties": { "full_id": "n1702628842", "addr_house": null, "amenity": "fire_station", "addr_city": null, "addr_postc": null, "addr_stree": null }, "geometry": { "type": "Point", "coordinates": [ 4.7738116, 51.818876 ] } },
{ "type": "Feature", "properties": { "full_id": "n1709224713", "addr_house": null, "amenity": "fire_station", "addr_city": null, "addr_postc": null, "addr_stree": null }, "geometry": { "type": "Point", "coordinates": [ 5.0785459, 51.5587533 ] } },
{ "type": "Feature", "properties": { "full_id": "n1724006001", "addr_house": null, "amenity": "fire_station", "addr_city": null, "addr_postc": null, "addr_stree": null }, "geometry": { "type": "Point", "coordinates": [ 3.9146969, 51.6483521 ] } },
{ "type": "Feature", "properties": { "full_id": "n1735270293", "addr_house": null, "amenity": "fire_station", "addr_city": null, "addr_postc": null, "addr_stree": null }, "geometry": { "type": "Point", "coordinates": [ 4.8738015, 51.8217488 ] } },
{ "type": "Feature", "properties": { "full_id": "n1746551901", "addr_house": null, "amenity": "fire_station", "addr_city": null, "addr_postc": null, "addr_stree": null }, "geometry": { "type": "Point", "coordinates": [ 4.6899325, 51.9002775 ] } },
{ "type": "Feature", "properties": { "full_id": "n1753978932", "addr_house": null, "amenity": "fire_station", "addr_city": null, "addr_postc": null, "addr_stree": null }, "geometry": { "type": "Point", "coordinates": [ -63.067471, 18.0262046 ] } },
{ "type": "Feature", "properties": { "full_id": "n1759017318", "addr_house": "44", "amenity": "fire_station", "addr_city": null, "addr_postc": "3067 GM", "addr_stree": "Metaalhof" }, "geometry": { "type": "Point", "coordinates": [ 4.5432379, 51.9490184 ] } },
{ "type": "Feature", "properties": { "full_id": "n1766413827", "addr_house": null, "amenity": "fire_station", "addr_city": null, "addr_postc": null, "addr_stree": null }, "geometry": { "type": "Point", "coordinates": [ 5.9630879, 52.1584798 ] } },
{ "type": "Feature", "properties": { "full_id": "n1771211387", "addr_house": "2", "amenity": "fire_station", "addr_city": "Brielle", "addr_postc": "3232 HA", "addr_stree": "Krammer" }, "geometry": { "type": "Point", "coordinates": [ 4.1703252, 51.8987585 ] } },
{ "type": "Feature", "properties": { "full_id": "n1781068049", "addr_house": "36", "amenity": "fire_station", "addr_city": "Roermond", "addr_postc": "6041KK", "addr_stree": "Minderbroederssingel" }, "geometry": { "type": "Point", "coordinates": [ 5.9846725, 51.1910961 ] } },
{ "type": "Feature", "properties": { "full_id": "n1801017755", "addr_house": null, "amenity": "fire_station", "addr_city": null, "addr_postc": null, "addr_stree": null }, "geometry": { "type": "Point", "coordinates": [ 4.7737258, 52.0003361 ] } },
{ "type": "Feature", "properties": { "full_id": "n1801017757", "addr_house": null, "amenity": "fire_station", "addr_city": null, "addr_postc": null, "addr_stree": null }, "geometry": { "type": "Point", "coordinates": [ 4.7730552, 51.972967 ] } },
{ "type": "Feature", "properties": { "full_id": "n1846024060", "addr_house": "9", "amenity": "fire_station", "addr_city": "Midsland", "addr_postc": "8891GG", "addr_stree": "Midslander Hoofdweg" }, "geometry": { "type": "Point", "coordinates": [ 5.2898533, 53.3819249 ] } },
{ "type": "Feature", "properties": { "full_id": "n1848877959", "addr_house": null, "amenity": "fire_station", "addr_city": null, "addr_postc": null, "addr_stree": null }, "geometry": { "type": "Point", "coordinates": [ 6.0699964, 51.9955997 ] } },
{ "type": "Feature", "properties": { "full_id": "n1854161746", "addr_house": null, "amenity": "fire_station", "addr_city": null, "addr_postc": null, "addr_stree": null }, "geometry": { "type": "Point", "coordinates": [ 5.4464473, 51.4760706 ] } },
{ "type": "Feature", "properties": { "full_id": "n1894924123", "addr_house": "92", "amenity": "fire_station", "addr_city": "Mijnsheerenland", "addr_postc": "3271BK", "addr_stree": "Laan van Westmolen" }, "geometry": { "type": "Point", "coordinates": [ 4.4754481, 51.7934734 ] } },
{ "type": "Feature", "properties": { "full_id": "n1898539968", "addr_house": null, "amenity": "fire_station", "addr_city": null, "addr_postc": null, "addr_stree": null }, "geometry": { "type": "Point", "coordinates": [ 6.0514526, 51.8602928 ] } },
{ "type": "Feature", "properties": { "full_id": "n1921986406", "addr_house": null, "amenity": "fire_station", "addr_city": null, "addr_postc": null, "addr_stree": null }, "geometry": { "type": "Point", "coordinates": [ 5.1447913, 51.6084098 ] } },
{ "type": "Feature", "properties": { "full_id": "n1925286509", "addr_house": null, "amenity": "fire_station", "addr_city": null, "addr_postc": null, "addr_stree": null }, "geometry": { "type": "Point", "coordinates": [ 4.7461964, 52.6364074 ] } },
{ "type": "Feature", "properties": { "full_id": "n1927327003", "addr_house": null, "amenity": "fire_station", "addr_city": null, "addr_postc": null, "addr_stree": null }, "geometry": { "type": "Point", "coordinates": [ 4.7171004, 52.2583587 ] } },
{ "type": "Feature", "properties": { "full_id": "n1931472227", "addr_house": null, "amenity": "fire_station", "addr_city": null, "addr_postc": null, "addr_stree": null }, "geometry": { "type": "Point", "coordinates": [ 5.4741074, 51.4342793 ] } },
{ "type": "Feature", "properties": { "full_id": "n1951025415", "addr_house": null, "amenity": "fire_station", "addr_city": null, "addr_postc": null, "addr_stree": null }, "geometry": { "type": "Point", "coordinates": [ 4.456872, 51.5884999 ] } },
{ "type": "Feature", "properties": { "full_id": "n1951478103", "addr_house": null, "amenity": "fire_station", "addr_city": null, "addr_postc": null, "addr_stree": null }, "geometry": { "type": "Point", "coordinates": [ 3.8429039, 51.5997965 ] } },
{ "type": "Feature", "properties": { "full_id": "n1953254250", "addr_house": "1A", "amenity": "fire_station", "addr_city": "Mechelen", "addr_postc": "6281BV", "addr_stree": "Spetsesweide" }, "geometry": { "type": "Point", "coordinates": [ 5.9282514, 50.7920798 ] } },
{ "type": "Feature", "properties": { "full_id": "n1960049756", "addr_house": null, "amenity": "fire_station", "addr_city": null, "addr_postc": null, "addr_stree": null }, "geometry": { "type": "Point", "coordinates": [ 6.3844704, 51.876723 ] } },
{ "type": "Feature", "properties": { "full_id": "n1960079241", "addr_house": null, "amenity": "fire_station", "addr_city": null, "addr_postc": null, "addr_stree": null }, "geometry": { "type": "Point", "coordinates": [ 6.4842868, 51.8661997 ] } },
{ "type": "Feature", "properties": { "full_id": "n1988438750", "addr_house": null, "amenity": "fire_station", "addr_city": null, "addr_postc": null, "addr_stree": null }, "geometry": { "type": "Point", "coordinates": [ 5.7903806, 52.2926968 ] } },
{ "type": "Feature", "properties": { "full_id": "n2002344099", "addr_house": "35", "amenity": "fire_station", "addr_city": "Schipluiden", "addr_postc": "2636HX", "addr_stree": "Anna van Raesfeltstraat" }, "geometry": { "type": "Point", "coordinates": [ 4.3188691, 51.979861 ] } },
{ "type": "Feature", "properties": { "full_id": "n2002344998", "addr_house": null, "amenity": "fire_station", "addr_city": null, "addr_postc": null, "addr_stree": null }, "geometry": { "type": "Point", "coordinates": [ 4.2700831, 51.9347264 ] } },
{ "type": "Feature", "properties": { "full_id": "n2015263749", "addr_house": "66", "amenity": "fire_station", "addr_city": "Rheden", "addr_postc": "6991DX", "addr_stree": "Worth Rhedenseweg" }, "geometry": { "type": "Point", "coordinates": [ 6.0239004, 52.0045927 ] } },
{ "type": "Feature", "properties": { "full_id": "n2026294247", "addr_house": null, "amenity": "fire_station", "addr_city": null, "addr_postc": null, "addr_stree": null }, "geometry": { "type": "Point", "coordinates": [ 5.5270827, 52.3380053 ] } },
{ "type": "Feature", "properties": { "full_id": "n2029294278", "addr_house": null, "amenity": "fire_station", "addr_city": null, "addr_postc": null, "addr_stree": null }, "geometry": { "type": "Point", "coordinates": [ 6.0953948, 52.5909271 ] } },
{ "type": "Feature", "properties": { "full_id": "n2063878685", "addr_house": null, "amenity": "fire_station", "addr_city": null, "addr_postc": null, "addr_stree": null }, "geometry": { "type": "Point", "coordinates": [ 4.8043706, 52.6870249 ] } },
{ "type": "Feature", "properties": { "full_id": "n2092704821", "addr_house": null, "amenity": "fire_station", "addr_city": null, "addr_postc": null, "addr_stree": null }, "geometry": { "type": "Point", "coordinates": [ 5.7084334, 50.8151394 ] } },
{ "type": "Feature", "properties": { "full_id": "n2105457388", "addr_house": null, "amenity": "fire_station", "addr_city": null, "addr_postc": null, "addr_stree": null }, "geometry": { "type": "Point", "coordinates": [ 5.0285521, 52.6819464 ] } },
{ "type": "Feature", "properties": { "full_id": "n2107528072", "addr_house": null, "amenity": "fire_station", "addr_city": null, "addr_postc": null, "addr_stree": null }, "geometry": { "type": "Point", "coordinates": [ 5.4582788, 51.3462205 ] } },
{ "type": "Feature", "properties": { "full_id": "n2108605693", "addr_house": null, "amenity": "fire_station", "addr_city": null, "addr_postc": null, "addr_stree": null }, "geometry": { "type": "Point", "coordinates": [ 4.6920824, 51.8364221 ] } },
{ "type": "Feature", "properties": { "full_id": "n2119929639", "addr_house": null, "amenity": "fire_station", "addr_city": null, "addr_postc": null, "addr_stree": null }, "geometry": { "type": "Point", "coordinates": [ 5.0285145, 52.8505705 ] } },
{ "type": "Feature", "properties": { "full_id": "n2139719826", "addr_house": null, "amenity": "fire_station", "addr_city": null, "addr_postc": null, "addr_stree": null }, "geometry": { "type": "Point", "coordinates": [ 5.7163508, 51.1976124 ] } },
{ "type": "Feature", "properties": { "full_id": "n2146082688", "addr_house": null, "amenity": "fire_station", "addr_city": null, "addr_postc": null, "addr_stree": null }, "geometry": { "type": "Point", "coordinates": [ 6.6160223, 52.8445522 ] } },
{ "type": "Feature", "properties": { "full_id": "n2173655590", "addr_house": null, "amenity": "fire_station", "addr_city": null, "addr_postc": null, "addr_stree": null }, "geometry": { "type": "Point", "coordinates": [ 5.5803736, 52.8961488 ] } },
{ "type": "Feature", "properties": { "full_id": "n2177490028", "addr_house": null, "amenity": "fire_station", "addr_city": null, "addr_postc": null, "addr_stree": null }, "geometry": { "type": "Point", "coordinates": [ 5.1112603, 52.3262899 ] } },
{ "type": "Feature", "properties": { "full_id": "n2184618514", "addr_house": null, "amenity": "fire_station", "addr_city": null, "addr_postc": null, "addr_stree": null }, "geometry": { "type": "Point", "coordinates": [ 4.3050956, 51.8702559 ] } },
{ "type": "Feature", "properties": { "full_id": "n2184618521", "addr_house": null, "amenity": "fire_station", "addr_city": null, "addr_postc": null, "addr_stree": null }, "geometry": { "type": "Point", "coordinates": [ 4.150241, 51.9347914 ] } },
{ "type": "Feature", "properties": { "full_id": "n2187246065", "addr_house": "39", "amenity": "fire_station", "addr_city": "Wassenaar", "addr_postc": null, "addr_stree": "Johan de Wittstraat" }, "geometry": { "type": "Point", "coordinates": [ 4.3982283, 52.145085 ] } },
{ "type": "Feature", "properties": { "full_id": "n2190128940", "addr_house": null, "amenity": "fire_station", "addr_city": null, "addr_postc": null, "addr_stree": null }, "geometry": { "type": "Point", "coordinates": [ 4.3782055, 51.8758415 ] } },
{ "type": "Feature", "properties": { "full_id": "n2206833544", "addr_house": null, "amenity": "fire_station", "addr_city": null, "addr_postc": null, "addr_stree": null }, "geometry": { "type": "Point", "coordinates": [ 5.4967848, 52.1396833 ] } },
{ "type": "Feature", "properties": { "full_id": "n2207171156", "addr_house": null, "amenity": "fire_station", "addr_city": null, "addr_postc": null, "addr_stree": null }, "geometry": { "type": "Point", "coordinates": [ 4.8227218, 52.4544154 ] } },
{ "type": "Feature", "properties": { "full_id": "n2237514055", "addr_house": null, "amenity": "fire_station", "addr_city": null, "addr_postc": null, "addr_stree": null }, "geometry": { "type": "Point", "coordinates": [ 4.0783083, 51.8746726 ] } },
{ "type": "Feature", "properties": { "full_id": "n2250870387", "addr_house": null, "amenity": "fire_station", "addr_city": null, "addr_postc": null, "addr_stree": null }, "geometry": { "type": "Point", "coordinates": [ 5.8280194, 50.8200875 ] } },
{ "type": "Feature", "properties": { "full_id": "n2251193429", "addr_house": null, "amenity": "fire_station", "addr_city": null, "addr_postc": null, "addr_stree": null }, "geometry": { "type": "Point", "coordinates": [ 4.4524643, 51.531411 ] } },
{ "type": "Feature", "properties": { "full_id": "n2258310720", "addr_house": "2", "amenity": "fire_station", "addr_city": "Raalte", "addr_postc": "8102HH", "addr_stree": "Aakstraat" }, "geometry": { "type": "Point", "coordinates": [ 6.2797025, 52.3801313 ] } },
{ "type": "Feature", "properties": { "full_id": "n2261871101", "addr_house": null, "amenity": "fire_station", "addr_city": null, "addr_postc": null, "addr_stree": null }, "geometry": { "type": "Point", "coordinates": [ 5.1620506, 52.2698493 ] } },
{ "type": "Feature", "properties": { "full_id": "n2291868198", "addr_house": null, "amenity": "fire_station", "addr_city": null, "addr_postc": null, "addr_stree": null }, "geometry": { "type": "Point", "coordinates": [ 4.1443138, 51.8354804 ] } },
{ "type": "Feature", "properties": { "full_id": "n2302234827", "addr_house": null, "amenity": "fire_station", "addr_city": null, "addr_postc": null, "addr_stree": null }, "geometry": { "type": "Point", "coordinates": [ 5.7600961, 51.8683403 ] } },
{ "type": "Feature", "properties": { "full_id": "n2302312322", "addr_house": null, "amenity": "fire_station", "addr_city": null, "addr_postc": null, "addr_stree": null }, "geometry": { "type": "Point", "coordinates": [ 6.4781245, 52.7316256 ] } },
{ "type": "Feature", "properties": { "full_id": "n2308706113", "addr_house": null, "amenity": "fire_station", "addr_city": null, "addr_postc": null, "addr_stree": null }, "geometry": { "type": "Point", "coordinates": [ 5.97233, 51.88149 ] } },
{ "type": "Feature", "properties": { "full_id": "n2308706563", "addr_house": null, "amenity": "fire_station", "addr_city": null, "addr_postc": null, "addr_stree": null }, "geometry": { "type": "Point", "coordinates": [ 6.0021562, 51.8931976 ] } },
{ "type": "Feature", "properties": { "full_id": "n2335420621", "addr_house": null, "amenity": "fire_station", "addr_city": null, "addr_postc": null, "addr_stree": null }, "geometry": { "type": "Point", "coordinates": [ 4.919052, 51.4475295 ] } },
{ "type": "Feature", "properties": { "full_id": "n2340191442", "addr_house": "17", "amenity": "fire_station", "addr_city": "Leende", "addr_postc": "5595DD", "addr_stree": "Biesven" }, "geometry": { "type": "Point", "coordinates": [ 5.5439407, 51.3515309 ] } },
{ "type": "Feature", "properties": { "full_id": "n2348465985", "addr_house": null, "amenity": "fire_station", "addr_city": null, "addr_postc": null, "addr_stree": null }, "geometry": { "type": "Point", "coordinates": [ 4.4074168, 51.8564351 ] } },
{ "type": "Feature", "properties": { "full_id": "n2364232876", "addr_house": "2", "amenity": "fire_station", "addr_city": "Moergestel", "addr_postc": "5066AA", "addr_stree": "Kloosterdreef" }, "geometry": { "type": "Point", "coordinates": [ 5.1823081, 51.5481832 ] } },
{ "type": "Feature", "properties": { "full_id": "n2381198340", "addr_house": null, "amenity": "fire_station", "addr_city": null, "addr_postc": null, "addr_stree": null }, "geometry": { "type": "Point", "coordinates": [ 6.2984158, 52.6815749 ] } },
{ "type": "Feature", "properties": { "full_id": "n2383240651", "addr_house": null, "amenity": "fire_station", "addr_city": null, "addr_postc": null, "addr_stree": null }, "geometry": { "type": "Point", "coordinates": [ 4.4807887, 51.9140487 ] } },
{ "type": "Feature", "properties": { "full_id": "n2383253499", "addr_house": null, "amenity": "fire_station", "addr_city": null, "addr_postc": null, "addr_stree": null }, "geometry": { "type": "Point", "coordinates": [ 4.1313667, 51.9797949 ] } },
{ "type": "Feature", "properties": { "full_id": "n2386819010", "addr_house": "72", "amenity": "fire_station", "addr_city": "Veghel", "addr_postc": "5462GE", "addr_stree": "N.C.B.-laan" }, "geometry": { "type": "Point", "coordinates": [ 5.5227068, 51.6160848 ] } },
{ "type": "Feature", "properties": { "full_id": "n2386819011", "addr_house": null, "amenity": "fire_station", "addr_city": null, "addr_postc": null, "addr_stree": null }, "geometry": { "type": "Point", "coordinates": [ 5.5170927, 51.6135287 ] } },
{ "type": "Feature", "properties": { "full_id": "n2387995084", "addr_house": "35", "amenity": "fire_station", "addr_city": "Hoogvliet Rotterdam", "addr_postc": "3191HA", "addr_stree": "Rietbroek" }, "geometry": { "type": "Point", "coordinates": [ 4.3655338, 51.8580279 ] } },
{ "type": "Feature", "properties": { "full_id": "n2406724835", "addr_house": null, "amenity": "fire_station", "addr_city": null, "addr_postc": null, "addr_stree": null }, "geometry": { "type": "Point", "coordinates": [ 5.1903718, 51.5811029 ] } },
{ "type": "Feature", "properties": { "full_id": "n2416228324", "addr_house": null, "amenity": "fire_station", "addr_city": null, "addr_postc": null, "addr_stree": null }, "geometry": { "type": "Point", "coordinates": [ 5.8181545, 51.0396163 ] } },
{ "type": "Feature", "properties": { "full_id": "n2419443011", "addr_house": null, "amenity": "fire_station", "addr_city": null, "addr_postc": null, "addr_stree": null }, "geometry": { "type": "Point", "coordinates": [ 5.1442783, 52.1248546 ] } },
{ "type": "Feature", "properties": { "full_id": "n2430523760", "addr_house": null, "amenity": "fire_station", "addr_city": null, "addr_postc": null, "addr_stree": null }, "geometry": { "type": "Point", "coordinates": [ 5.0200322, 52.2107196 ] } },
{ "type": "Feature", "properties": { "full_id": "n2435552781", "addr_house": null, "amenity": "fire_station", "addr_city": null, "addr_postc": null, "addr_stree": null }, "geometry": { "type": "Point", "coordinates": [ 4.483102, 52.1472754 ] } },
{ "type": "Feature", "properties": { "full_id": "n2448543332", "addr_house": "5", "amenity": "fire_station", "addr_city": "Heesch", "addr_postc": "5384NK", "addr_stree": "De La Sallestraat" }, "geometry": { "type": "Point", "coordinates": [ 5.5202563, 51.7342759 ] } },
{ "type": "Feature", "properties": { "full_id": "n2453559575", "addr_house": "21", "amenity": "fire_station", "addr_city": "Enschede", "addr_postc": "7548EM", "addr_stree": "Verzetslaan" }, "geometry": { "type": "Point", "coordinates": [ 6.8071139, 52.206206 ] } },
{ "type": "Feature", "properties": { "full_id": "n2459759815", "addr_house": "11", "amenity": "fire_station", "addr_city": "Borne", "addr_postc": "7622BM", "addr_stree": "De Bieffel" }, "geometry": { "type": "Point", "coordinates": [ 6.7443243, 52.3088838 ] } },
{ "type": "Feature", "properties": { "full_id": "n2502817040", "addr_house": "72", "amenity": "fire_station", "addr_city": "Heino", "addr_postc": "8141GC", "addr_stree": "Marktstraat" }, "geometry": { "type": "Point", "coordinates": [ 6.2410859, 52.4372649 ] } },
{ "type": "Feature", "properties": { "full_id": "n2503165042", "addr_house": "36", "amenity": "fire_station", "addr_city": "Hattem", "addr_postc": "8051VB", "addr_stree": "Verlengde Parklaan" }, "geometry": { "type": "Point", "coordinates": [ 6.0638669, 52.4726326 ] } },
{ "type": "Feature", "properties": { "full_id": "n2504482525", "addr_house": "5", "amenity": "fire_station", "addr_city": "Glanrbrug", "addr_postc": "7534CG", "addr_stree": "Tolstraat" }, "geometry": { "type": "Point", "coordinates": [ 6.9745092, 52.2143501 ] } },
{ "type": "Feature", "properties": { "full_id": "n2516041073", "addr_house": "40", "amenity": "fire_station", "addr_city": "Losser", "addr_postc": "7582PT", "addr_stree": "Broekhoekweg" }, "geometry": { "type": "Point", "coordinates": [ 7.0065193, 52.2513457 ] } },
{ "type": "Feature", "properties": { "full_id": "n2541524656", "addr_house": "65a", "amenity": "fire_station", "addr_city": "Bergentheim", "addr_postc": "7691BV", "addr_stree": "Kanaalweg-West" }, "geometry": { "type": "Point", "coordinates": [ 6.621804, 52.5291567 ] } },
{ "type": "Feature", "properties": { "full_id": "n2553914733", "addr_house": "6", "amenity": "fire_station", "addr_city": "Vorden", "addr_postc": "7251RV", "addr_stree": "Rondweg" }, "geometry": { "type": "Point", "coordinates": [ 6.2992496, 52.1102929 ] } },
{ "type": "Feature", "properties": { "full_id": "n2573636448", "addr_house": null, "amenity": "fire_station", "addr_city": null, "addr_postc": null, "addr_stree": null }, "geometry": { "type": "Point", "coordinates": [ 6.0464311, 51.608306 ] } },
{ "type": "Feature", "properties": { "full_id": "n2580575603", "addr_house": null, "amenity": "fire_station", "addr_city": null, "addr_postc": null, "addr_stree": null }, "geometry": { "type": "Point", "coordinates": [ 5.8030195, 50.9472295 ] } },
{ "type": "Feature", "properties": { "full_id": "n2605225380", "addr_house": "1", "amenity": "fire_station", "addr_city": "Zoetermeer", "addr_postc": "2729NA", "addr_stree": "Olof Palmelaan" }, "geometry": { "type": "Point", "coordinates": [ 4.5264551, 52.0537128 ] } },
{ "type": "Feature", "properties": { "full_id": "n2626279931", "addr_house": "2", "amenity": "fire_station", "addr_city": "Zelhem", "addr_postc": "7021BL", "addr_stree": "Industriepark" }, "geometry": { "type": "Point", "coordinates": [ 6.3507139, 52.0014045 ] } },
{ "type": "Feature", "properties": { "full_id": "n2628092939", "addr_house": "15", "amenity": "fire_station", "addr_city": "Wezep", "addr_postc": "8091XA", "addr_stree": "Rondweg" }, "geometry": { "type": "Point", "coordinates": [ 6.0060219, 52.4739153 ] } },
{ "type": "Feature", "properties": { "full_id": "n2629217250", "addr_house": "4", "amenity": "fire_station", "addr_city": "Pijnacker", "addr_postc": "2641BJ", "addr_stree": "Nootdorpseweg" }, "geometry": { "type": "Point", "coordinates": [ 4.4258739, 52.0195783 ] } },
{ "type": "Feature", "properties": { "full_id": "n2652756426", "addr_house": "22", "amenity": "fire_station", "addr_city": "Laren", "addr_postc": "7245BL", "addr_stree": "Zutphenseweg" }, "geometry": { "type": "Point", "coordinates": [ 6.362513, 52.1907354 ] } },
{ "type": "Feature", "properties": { "full_id": "n2652899226", "addr_house": "14a", "amenity": "fire_station", "addr_city": "Gorssel", "addr_postc": "7213CV", "addr_stree": "Hoofdstraat" }, "geometry": { "type": "Point", "coordinates": [ 6.2011176, 52.1973934 ] } },
{ "type": "Feature", "properties": { "full_id": "n2654731300", "addr_house": "2a", "amenity": "fire_station", "addr_city": "Almen", "addr_postc": "7218AS", "addr_stree": "Berkelweg" }, "geometry": { "type": "Point", "coordinates": [ 6.3009428, 52.1572047 ] } },
{ "type": "Feature", "properties": { "full_id": "n2657601333", "addr_house": "7", "amenity": "fire_station", "addr_city": "Lochem", "addr_postc": "7242EA", "addr_stree": "Albert Hahnweg" }, "geometry": { "type": "Point", "coordinates": [ 6.4130463, 52.1585106 ] } },
{ "type": "Feature", "properties": { "full_id": "n2675050506", "addr_house": "5", "amenity": "fire_station", "addr_city": "Deventer", "addr_postc": "7418CC", "addr_stree": "Schonenvaardersstraat" }, "geometry": { "type": "Point", "coordinates": [ 6.176687, 52.2519478 ] } },
{ "type": "Feature", "properties": { "full_id": "n2681880043", "addr_house": "2-03", "amenity": "fire_station", "addr_city": "Borculo", "addr_postc": "7271BT", "addr_stree": "Haarloseweg" }, "geometry": { "type": "Point", "coordinates": [ 6.5225404, 52.1114774 ] } },
{ "type": "Feature", "properties": { "full_id": "n2685527882", "addr_house": "6", "amenity": "fire_station", "addr_city": "Apeldoorn", "addr_postc": "7332BH", "addr_stree": "Saba" }, "geometry": { "type": "Point", "coordinates": [ 5.9842046, 52.1840292 ] } },
{ "type": "Feature", "properties": { "full_id": "n2685676184", "addr_house": "2", "amenity": "fire_station", "addr_city": "Apeldoorn", "addr_postc": "7329BK", "addr_stree": "Beatrijsgaarde" }, "geometry": { "type": "Point", "coordinates": [ 6.0015954, 52.1925086 ] } },
{ "type": "Feature", "properties": { "full_id": "n2686721326", "addr_house": null, "amenity": "fire_station", "addr_city": null, "addr_postc": null, "addr_stree": null }, "geometry": { "type": "Point", "coordinates": [ 5.9456346, 52.1959675 ] } },
{ "type": "Feature", "properties": { "full_id": "n2694269909", "addr_house": "20", "amenity": "fire_station", "addr_city": "Groenlo", "addr_postc": "7141DG", "addr_stree": "Oude Winterswijkseweg" }, "geometry": { "type": "Point", "coordinates": [ 6.6256926, 52.0351471 ] } },
{ "type": "Feature", "properties": { "full_id": "n2695681216", "addr_house": "29", "amenity": "fire_station", "addr_city": "Boskoop", "addr_postc": "2771EP", "addr_stree": "Torenpad" }, "geometry": { "type": "Point", "coordinates": [ 4.6552757, 52.0754395 ] } },
{ "type": "Feature", "properties": { "full_id": "n2711490973", "addr_house": "8", "amenity": "fire_station", "addr_city": "Luttenberg", "addr_postc": "8105RC", "addr_stree": "Witte Hekke" }, "geometry": { "type": "Point", "coordinates": [ 6.3571515, 52.405165 ] } },
{ "type": "Feature", "properties": { "full_id": "n2716117473", "addr_house": "28", "amenity": "fire_station", "addr_city": "Varsseveld", "addr_postc": "7051ZH", "addr_stree": "Klaproosstraat" }, "geometry": { "type": "Point", "coordinates": [ 6.4585886, 51.9447411 ] } },
{ "type": "Feature", "properties": { "full_id": "n2720128894", "addr_house": "13", "amenity": "fire_station", "addr_city": "Franeker", "addr_postc": "8801PG", "addr_stree": "Burgemeester J Dijkstraweg" }, "geometry": { "type": "Point", "coordinates": [ 5.5311309, 53.1858022 ] } },
{ "type": "Feature", "properties": { "full_id": "n2728561496", "addr_house": "78", "amenity": "fire_station", "addr_city": "Nieuw-Lekkerland", "addr_postc": "2957SN", "addr_stree": "Planetenlaan" }, "geometry": { "type": "Point", "coordinates": [ 4.6788096, 51.8862674 ] } },
{ "type": "Feature", "properties": { "full_id": "n2729318788", "addr_house": "3", "amenity": "fire_station", "addr_city": "Lisserbroek", "addr_postc": "2165XT", "addr_stree": "Veenwortelstraat" }, "geometry": { "type": "Point", "coordinates": [ 4.5710243, 52.2595091 ] } },
{ "type": "Feature", "properties": { "full_id": "n2729623124", "addr_house": "52", "amenity": "fire_station", "addr_city": "Heerde", "addr_postc": "8181XT", "addr_stree": "Rhijnsburglaan" }, "geometry": { "type": "Point", "coordinates": [ 6.0339437, 52.391598 ] } },
{ "type": "Feature", "properties": { "full_id": "n2730213262", "addr_house": "1A", "amenity": "fire_station", "addr_city": "'s-Gravenhage", "addr_postc": "2585BA", "addr_stree": "Burgemeester van Karnebeeklaan" }, "geometry": { "type": "Point", "coordinates": [ 4.2994951, 52.0877353 ] } },
{ "type": "Feature", "properties": { "full_id": "n2731118940", "addr_house": "8", "amenity": "fire_station", "addr_city": "Ederveen", "addr_postc": "6744PW", "addr_stree": "Sneeuwbesstraat" }, "geometry": { "type": "Point", "coordinates": [ 5.5820751, 52.0610683 ] } },
{ "type": "Feature", "properties": { "full_id": "n2731225631", "addr_house": "117", "amenity": "fire_station", "addr_city": "Renswoude", "addr_postc": "3927BC", "addr_stree": "Dorpsstraat" }, "geometry": { "type": "Point", "coordinates": [ 5.5370043, 52.0746523 ] } },
{ "type": "Feature", "properties": { "full_id": "n2731915284", "addr_house": "3", "amenity": "fire_station", "addr_city": "Doesburg", "addr_postc": "6982AM", "addr_stree": "Halve Maanweg" }, "geometry": { "type": "Point", "coordinates": [ 6.1386515, 52.0111193 ] } },
{ "type": "Feature", "properties": { "full_id": "n2734544717", "addr_house": "4A", "amenity": "fire_station", "addr_city": "Eemnes", "addr_postc": "3755EZ", "addr_stree": "Noordersingel" }, "geometry": { "type": "Point", "coordinates": [ 5.2642527, 52.2562308 ] } },
{ "type": "Feature", "properties": { "full_id": "n2736687049", "addr_house": "1", "amenity": "fire_station", "addr_city": "Wolvega", "addr_postc": "8472EB", "addr_stree": "Grafietstraat" }, "geometry": { "type": "Point", "coordinates": [ 5.9811323, 52.8809777 ] } },
{ "type": "Feature", "properties": { "full_id": "n2736817526", "addr_house": "53", "amenity": "fire_station", "addr_city": "Hoog Soeren", "addr_postc": "7346AC", "addr_stree": "Hoog Soeren" }, "geometry": { "type": "Point", "coordinates": [ 5.873147, 52.2170314 ] } },
{ "type": "Feature", "properties": { "full_id": "n2736940739", "addr_house": "7", "amenity": "fire_station", "addr_city": "Oene", "addr_postc": "8167NK", "addr_stree": "Dorpsstraat" }, "geometry": { "type": "Point", "coordinates": [ 6.0479863, 52.3438222 ] } },
{ "type": "Feature", "properties": { "full_id": "n2737072355", "addr_house": "22", "amenity": "fire_station", "addr_city": "Welsum", "addr_postc": "8196KW", "addr_stree": "Kerklaan" }, "geometry": { "type": "Point", "coordinates": [ 6.0896496, 52.3346694 ] } },
{ "type": "Feature", "properties": { "full_id": "n2737233687", "addr_house": "6", "amenity": "fire_station", "addr_city": "Hoenderloo", "addr_postc": "7351BD", "addr_stree": "Brinkenbergweg" }, "geometry": { "type": "Point", "coordinates": [ 5.8774652, 52.1198065 ] } },
{ "type": "Feature", "properties": { "full_id": "n2737801927", "addr_house": "1A", "amenity": "fire_station", "addr_city": "Best", "addr_postc": "5684SB", "addr_stree": "Willem de Zwijgerweg" }, "geometry": { "type": "Point", "coordinates": [ 5.3995769, 51.5050109 ] } },
{ "type": "Feature", "properties": { "full_id": "n2740412956", "addr_house": "33C", "amenity": "fire_station", "addr_city": "Steenderen", "addr_postc": "7221CA", "addr_stree": "Doctor Alfons Ariënsstraat" }, "geometry": { "type": "Point", "coordinates": [ 6.1930026, 52.0708806 ] } },
{ "type": "Feature", "properties": { "full_id": "n2746468438", "addr_house": "2", "amenity": "fire_station", "addr_city": "Eibergen", "addr_postc": "7151HN", "addr_stree": "Nijverheidsstraat" }, "geometry": { "type": "Point", "coordinates": [ 6.6499742, 52.0945581 ] } },
{ "type": "Feature", "properties": { "full_id": "n2746491281", "addr_house": "38", "amenity": "fire_station", "addr_city": "Naaldwijk", "addr_postc": "2671JP", "addr_stree": "'s-Gravenzandseweg" }, "geometry": { "type": "Point", "coordinates": [ 4.202675, 51.9907982 ] } },
{ "type": "Feature", "properties": { "full_id": "n2750194490", "addr_house": "15", "amenity": "fire_station", "addr_city": "Enschede", "addr_postc": "7523ER", "addr_stree": "Lijsterstraat" }, "geometry": { "type": "Point", "coordinates": [ 6.8861492, 52.2383235 ] } },
{ "type": "Feature", "properties": { "full_id": "n2752894498", "addr_house": "8c", "amenity": "fire_station", "addr_city": "Vierlingsbeek", "addr_postc": "5821EA", "addr_stree": "Molenweg" }, "geometry": { "type": "Point", "coordinates": [ 5.9988385, 51.5981291 ] } },
{ "type": "Feature", "properties": { "full_id": "n2753635293", "addr_house": "1", "amenity": "fire_station", "addr_city": "Ten Boer", "addr_postc": "9791AC", "addr_stree": "Boltweg" }, "geometry": { "type": "Point", "coordinates": [ 6.700688, 53.2736977 ] } },
{ "type": "Feature", "properties": { "full_id": "n2753835617", "addr_house": "1", "amenity": "fire_station", "addr_city": "Ruinerwold", "addr_postc": "7961GD", "addr_stree": "Gieser Wildemans" }, "geometry": { "type": "Point", "coordinates": [ 6.2551272, 52.7254498 ] } },
{ "type": "Feature", "properties": { "full_id": "n2754831634", "addr_house": "15", "amenity": "fire_station", "addr_city": "Bedum", "addr_postc": "9781AC", "addr_stree": "Industrieweg" }, "geometry": { "type": "Point", "coordinates": [ 6.5943652, 53.2975517 ] } },
{ "type": "Feature", "properties": { "full_id": "n2755122326", "addr_house": "8", "amenity": "fire_station", "addr_city": "Schiermonnikoog", "addr_postc": "9166NZ", "addr_stree": "Knuppeldam" }, "geometry": { "type": "Point", "coordinates": [ 6.1682432, 53.4797067 ] } },
{ "type": "Feature", "properties": { "full_id": "n2756981309", "addr_house": "45", "amenity": "fire_station", "addr_city": "Middenmeer", "addr_postc": "1775BK", "addr_stree": "Ingenieur Wortmanstraat" }, "geometry": { "type": "Point", "coordinates": [ 4.9958559, 52.8066046 ] } },
{ "type": "Feature", "properties": { "full_id": "n2757093496", "addr_house": "2", "amenity": "fire_station", "addr_city": "Boxmeer", "addr_postc": "5831CA", "addr_stree": "Frans Halsstraat" }, "geometry": { "type": "Point", "coordinates": [ 5.9416263, 51.6492491 ] } },
{ "type": "Feature", "properties": { "full_id": "n2758124485", "addr_house": "20", "amenity": "fire_station", "addr_city": "Enschede", "addr_postc": "7543BG", "addr_stree": "Spaansland" }, "geometry": { "type": "Point", "coordinates": [ 6.8915607, 52.2033074 ] } },
{ "type": "Feature", "properties": { "full_id": "n2758126763", "addr_house": "5", "amenity": "fire_station", "addr_city": "Ruinen", "addr_postc": "7963AH", "addr_stree": "Kloosterstraat" }, "geometry": { "type": "Point", "coordinates": [ 6.3631022, 52.7647473 ] } },
{ "type": "Feature", "properties": { "full_id": "n2759101700", "addr_house": "2", "amenity": "fire_station", "addr_city": "Winsum", "addr_postc": "9951HT", "addr_stree": "Meeden" }, "geometry": { "type": "Point", "coordinates": [ 6.5233242, 53.3231841 ] } },
{ "type": "Feature", "properties": { "full_id": "n2759539446", "addr_house": "4", "amenity": "fire_station", "addr_city": "Oeffelt", "addr_postc": "5441AM", "addr_stree": "Schoolstraat" }, "geometry": { "type": "Point", "coordinates": [ 5.9354822, 51.6963693 ] } },
{ "type": "Feature", "properties": { "full_id": "n2760787503", "addr_house": "38B", "amenity": "fire_station", "addr_city": "Sint-Michielsgestel", "addr_postc": "5271SB", "addr_stree": "Schijndelseweg" }, "geometry": { "type": "Point", "coordinates": [ 5.3599823, 51.6379281 ] } },
{ "type": "Feature", "properties": { "full_id": "n2761781970", "addr_house": "9", "amenity": "fire_station", "addr_city": "Brakel", "addr_postc": "5306VN", "addr_stree": "Molenkampsweg" }, "geometry": { "type": "Point", "coordinates": [ 5.09531, 51.8137808 ] } },
{ "type": "Feature", "properties": { "full_id": "n2761882284", "addr_house": "20", "amenity": "fire_station", "addr_city": "Maasvlakte Rotterdam", "addr_postc": "3199LA", "addr_stree": "Coloradoweg" }, "geometry": { "type": "Point", "coordinates": [ 4.0272712, 51.955631 ] } },
{ "type": "Feature", "properties": { "full_id": "n2761988120", "addr_house": "4", "amenity": "fire_station", "addr_city": "Baflo", "addr_postc": "9953PS", "addr_stree": "Laurentiusstraat" }, "geometry": { "type": "Point", "coordinates": [ 6.516518, 53.362828 ] } },
{ "type": "Feature", "properties": { "full_id": "n2767016785", "addr_house": "77", "amenity": "fire_station", "addr_city": "Aalsmeer", "addr_postc": "1431VJ", "addr_stree": "Zwarteweg" }, "geometry": { "type": "Point", "coordinates": [ 4.7644097, 52.2592581 ] } },
{ "type": "Feature", "properties": { "full_id": "n2767237472", "addr_house": "2b", "amenity": "fire_station", "addr_city": "Strijen", "addr_postc": "3291CH", "addr_stree": "Nijverheidstraat" }, "geometry": { "type": "Point", "coordinates": [ 4.5548574, 51.7498308 ] } },
{ "type": "Feature", "properties": { "full_id": "n2769688071", "addr_house": "1", "amenity": "fire_station", "addr_city": "Borger", "addr_postc": "9531RA", "addr_stree": "IJzertijdstraat" }, "geometry": { "type": "Point", "coordinates": [ 6.7834042, 52.9224048 ] } },
{ "type": "Feature", "properties": { "full_id": "n2771956550", "addr_house": "23", "amenity": "fire_station", "addr_city": "Heeten", "addr_postc": "8111CW", "addr_stree": "IJzerweg" }, "geometry": { "type": "Point", "coordinates": [ 6.2842991, 52.3289022 ] } },
{ "type": "Feature", "properties": { "full_id": "n2772007134", "addr_house": "15", "amenity": "fire_station", "addr_city": "Holten", "addr_postc": "7451XS", "addr_stree": "Eg" }, "geometry": { "type": "Point", "coordinates": [ 6.4263212, 52.2844755 ] } },
{ "type": "Feature", "properties": { "full_id": "n2773227677", "addr_house": null, "amenity": "fire_station", "addr_city": null, "addr_postc": null, "addr_stree": null }, "geometry": { "type": "Point", "coordinates": [ 4.6736187, 51.8085827 ] } },
{ "type": "Feature", "properties": { "full_id": "n2773925040", "addr_house": "22", "amenity": "fire_station", "addr_city": "Gorinchem", "addr_postc": "4206AC", "addr_stree": "Arkelsedijk" }, "geometry": { "type": "Point", "coordinates": [ 4.9794749, 51.8363696 ] } },
{ "type": "Feature", "properties": { "full_id": "n2773998206", "addr_house": "20a", "amenity": "fire_station", "addr_city": "Driebruggen", "addr_postc": "3465JB", "addr_stree": "De Groendijck" }, "geometry": { "type": "Point", "coordinates": [ 4.8053426, 52.0451247 ] } },
{ "type": "Feature", "properties": { "full_id": "n2775439047", "addr_house": "6", "amenity": "fire_station", "addr_city": "Zuidbroek", "addr_postc": "9636HT", "addr_stree": "Europaweg" }, "geometry": { "type": "Point", "coordinates": [ 6.866099, 53.1665864 ] } },
{ "type": "Feature", "properties": { "full_id": "n2775817811", "addr_house": null, "amenity": "fire_station", "addr_city": null, "addr_postc": null, "addr_stree": null }, "geometry": { "type": "Point", "coordinates": [ 6.5758439, 53.0782948 ] } },
{ "type": "Feature", "properties": { "full_id": "n2775982094", "addr_house": "4", "amenity": "fire_station", "addr_city": "Hoorn", "addr_postc": "1628JT", "addr_stree": "IJsselweg" }, "geometry": { "type": "Point", "coordinates": [ 5.0940603, 52.6592754 ] } },
{ "type": "Feature", "properties": { "full_id": "n2776980350", "addr_house": "69", "amenity": "fire_station", "addr_city": "Norg", "addr_postc": "9331VE", "addr_stree": "Eenerstraat" }, "geometry": { "type": "Point", "coordinates": [ 6.4435027, 53.0680278 ] } },
{ "type": "Feature", "properties": { "full_id": "n2778047744", "addr_house": "3", "amenity": "fire_station", "addr_city": "Zoutkamp", "addr_postc": "9974RB", "addr_stree": "Marnestraat" }, "geometry": { "type": "Point", "coordinates": [ 6.3027448, 53.3382453 ] } },
{ "type": "Feature", "properties": { "full_id": "n2778968000", "addr_house": "4", "amenity": "fire_station", "addr_city": "Numansdorp", "addr_postc": "3281AN", "addr_stree": "Wethouder Van der Veldenweg" }, "geometry": { "type": "Point", "coordinates": [ 4.4390525, 51.7300101 ] } },
{ "type": "Feature", "properties": { "full_id": "n2779916521", "addr_house": null, "amenity": "fire_station", "addr_city": null, "addr_postc": null, "addr_stree": null }, "geometry": { "type": "Point", "coordinates": [ 6.5709884, 53.1404373 ] } },
{ "type": "Feature", "properties": { "full_id": "n2780267307", "addr_house": "52", "amenity": "fire_station", "addr_city": "Hedel", "addr_postc": "5321GD", "addr_stree": "Uithovensestraat" }, "geometry": { "type": "Point", "coordinates": [ 5.2522566, 51.7474798 ] } },
{ "type": "Feature", "properties": { "full_id": "n2780939211", "addr_house": "19", "amenity": "fire_station", "addr_city": "Goor", "addr_postc": "7471DP", "addr_stree": "van Kollaan" }, "geometry": { "type": "Point", "coordinates": [ 6.5803153, 52.2363595 ] } },
{ "type": "Feature", "properties": { "full_id": "n2781296875", "addr_house": "25", "amenity": "fire_station", "addr_city": "Smilde", "addr_postc": "9422AG", "addr_stree": "Hoofdweg" }, "geometry": { "type": "Point", "coordinates": [ 6.4507823, 52.9537734 ] } },
{ "type": "Feature", "properties": { "full_id": "n2787455875", "addr_house": "6", "amenity": "fire_station", "addr_city": "Diepenheim", "addr_postc": "7478BA", "addr_stree": "Wilsonweg" }, "geometry": { "type": "Point", "coordinates": [ 6.5605708, 52.198551 ] } },
{ "type": "Feature", "properties": { "full_id": "n2787898746", "addr_house": "49", "amenity": "fire_station", "addr_city": "Den Ham", "addr_postc": "7683BH", "addr_stree": "Dorpsstraat" }, "geometry": { "type": "Point", "coordinates": [ 6.5028715, 52.46131 ] } },
{ "type": "Feature", "properties": { "full_id": "n2788649684", "addr_house": "8", "amenity": "fire_station", "addr_city": "Vroomshoop", "addr_postc": "7681XN", "addr_stree": "Plantsoen" }, "geometry": { "type": "Point", "coordinates": [ 6.5624065, 52.4570106 ] } },
{ "type": "Feature", "properties": { "full_id": "n2792057180", "addr_house": "10", "amenity": "fire_station", "addr_city": "Liempde", "addr_postc": "5298AT", "addr_stree": "Oude Postbaan" }, "geometry": { "type": "Point", "coordinates": [ 5.3750424, 51.566438 ] } },
{ "type": "Feature", "properties": { "full_id": "n2794423743", "addr_house": null, "amenity": "fire_station", "addr_city": null, "addr_postc": null, "addr_stree": null }, "geometry": { "type": "Point", "coordinates": [ 5.7026142, 50.7792415 ] } },
{ "type": "Feature", "properties": { "full_id": "n2797748518", "addr_house": "51", "amenity": "fire_station", "addr_city": "Amsterdam", "addr_postc": "1060PG", "addr_stree": "Marmolada" }, "geometry": { "type": "Point", "coordinates": [ 4.7755429, 52.3492919 ] } },
{ "type": "Feature", "properties": { "full_id": "n2799396240", "addr_house": "10", "amenity": "fire_station", "addr_city": "Hardenberg", "addr_postc": "7771BG", "addr_stree": "Europaweg" }, "geometry": { "type": "Point", "coordinates": [ 6.6096287, 52.5715542 ] } },
{ "type": "Feature", "properties": { "full_id": "n2799605591", "addr_house": "2A", "amenity": "fire_station", "addr_city": "Giessenburg", "addr_postc": "3381LL", "addr_stree": "Sportplein" }, "geometry": { "type": "Point", "coordinates": [ 4.8936306, 51.8484205 ] } },
{ "type": "Feature", "properties": { "full_id": "n2801905427", "addr_house": "9", "amenity": "fire_station", "addr_city": "Groesbeek", "addr_postc": "6562AP", "addr_stree": "Industrieweg" }, "geometry": { "type": "Point", "coordinates": [ 5.940403, 51.7767364 ] } },
{ "type": "Feature", "properties": { "full_id": "n2802978552", "addr_house": "4a", "amenity": "fire_station", "addr_city": "Gramsbergen", "addr_postc": "7783CL", "addr_stree": "Oldenhof" }, "geometry": { "type": "Point", "coordinates": [ 6.6665856, 52.6092958 ] } },
{ "type": "Feature", "properties": { "full_id": "n2804224031", "addr_house": "70", "amenity": "fire_station", "addr_city": "De Krim", "addr_postc": "7782PP", "addr_stree": "Hoofdweg" }, "geometry": { "type": "Point", "coordinates": [ 6.6290333, 52.6514779 ] } },
{ "type": "Feature", "properties": { "full_id": "n2805613359", "addr_house": "36a", "amenity": "fire_station", "addr_city": "Slagharen", "addr_postc": "7776BW", "addr_stree": "Coevorderweg-Noord" }, "geometry": { "type": "Point", "coordinates": [ 6.55967, 52.6263937 ] } },
{ "type": "Feature", "properties": { "full_id": "n2811646507", "addr_house": "7", "amenity": "fire_station", "addr_city": "Wehe-den Hoorn", "addr_postc": "9964AZ", "addr_stree": "W.H. Timersmastraat" }, "geometry": { "type": "Point", "coordinates": [ 6.423758, 53.3559983 ] } },
{ "type": "Feature", "properties": { "full_id": "n2811790831", "addr_house": null, "amenity": "fire_station", "addr_city": null, "addr_postc": null, "addr_stree": null }, "geometry": { "type": "Point", "coordinates": [ 5.7036889, 50.8611898 ] } },
{ "type": "Feature", "properties": { "full_id": "n2812848746", "addr_house": "49", "amenity": "fire_station", "addr_city": "Fijnaart", "addr_postc": "4793AS", "addr_stree": "Langeweg" }, "geometry": { "type": "Point", "coordinates": [ 4.4749415, 51.6407186 ] } },
{ "type": "Feature", "properties": { "full_id": "n2813739899", "addr_house": "2", "amenity": "fire_station", "addr_city": "Veghel", "addr_postc": "5461KS", "addr_stree": "Stadhuisplein" }, "geometry": { "type": "Point", "coordinates": [ 5.5481413, 51.6143267 ] } },
{ "type": "Feature", "properties": { "full_id": "n2814200107", "addr_house": "49", "amenity": "fire_station", "addr_city": "Dinteloord", "addr_postc": "4671CH", "addr_stree": "Westerstraat" }, "geometry": { "type": "Point", "coordinates": [ 4.3694042, 51.6363508 ] } },
{ "type": "Feature", "properties": { "full_id": "n2814496685", "addr_house": "30", "amenity": "fire_station", "addr_city": "Stevensweert", "addr_postc": "6107CM", "addr_stree": "Sportlaan" }, "geometry": { "type": "Point", "coordinates": [ 5.8509783, 51.1307703 ] } },
{ "type": "Feature", "properties": { "full_id": "n2815045530", "addr_house": "2", "amenity": "fire_station", "addr_city": "Erp", "addr_postc": "5469CZ", "addr_stree": "Ottenstraat" }, "geometry": { "type": "Point", "coordinates": [ 5.6054488, 51.5995563 ] } },
{ "type": "Feature", "properties": { "full_id": "n2815735302", "addr_house": "6b", "amenity": "fire_station", "addr_city": "Thorn", "addr_postc": "6017BL", "addr_stree": "Oude Trambaan" }, "geometry": { "type": "Point", "coordinates": [ 5.8425973, 51.1633559 ] } },
{ "type": "Feature", "properties": { "full_id": "n2816184494", "addr_house": null, "amenity": "fire_station", "addr_city": null, "addr_postc": null, "addr_stree": null }, "geometry": { "type": "Point", "coordinates": [ 5.8279846, 50.8206415 ] } },
{ "type": "Feature", "properties": { "full_id": "n2816243763", "addr_house": "6", "amenity": "fire_station", "addr_city": "Didam", "addr_postc": "6942AH", "addr_stree": "Burgemeester Kronenburglaan" }, "geometry": { "type": "Point", "coordinates": [ 6.130365, 51.9392206 ] } },
{ "type": "Feature", "properties": { "full_id": "n2816406612", "addr_house": "51", "amenity": "fire_station", "addr_city": "Tholen", "addr_postc": "4691ES", "addr_stree": "Grindweg" }, "geometry": { "type": "Point", "coordinates": [ 4.2266362, 51.5379502 ] } },
{ "type": "Feature", "properties": { "full_id": "n2820719558", "addr_house": "1", "amenity": "fire_station", "addr_city": "Uithoorn", "addr_postc": "1421TB", "addr_stree": "Zijdelweg" }, "geometry": { "type": "Point", "coordinates": [ 4.8161776, 52.2419898 ] } },
{ "type": "Feature", "properties": { "full_id": "n2821004212", "addr_house": null, "amenity": "fire_station", "addr_city": null, "addr_postc": null, "addr_stree": null }, "geometry": { "type": "Point", "coordinates": [ 5.7462151, 50.8939755 ] } },
{ "type": "Feature", "properties": { "full_id": "n2823281781", "addr_house": "1", "amenity": "fire_station", "addr_city": "Nieuwerbrug aan den Rijn", "addr_postc": "2415CA", "addr_stree": "Gravin Margarethastraat" }, "geometry": { "type": "Point", "coordinates": [ 4.8107746, 52.0768037 ] } },
{ "type": "Feature", "properties": { "full_id": "n2825552922", "addr_house": "77", "amenity": "fire_station", "addr_city": "Dwingeloo", "addr_postc": "7991BD", "addr_stree": "Valderseweg" }, "geometry": { "type": "Point", "coordinates": [ 6.3746811, 52.8386867 ] } },
{ "type": "Feature", "properties": { "full_id": "n2827066899", "addr_house": "5", "amenity": "fire_station", "addr_city": "Bladel", "addr_postc": "5531KM", "addr_stree": "Isegrim" }, "geometry": { "type": "Point", "coordinates": [ 5.2083411, 51.3749092 ] } },
{ "type": "Feature", "properties": { "full_id": "n2827395651", "addr_house": "1", "amenity": "fire_station", "addr_city": "Hapert", "addr_postc": "5527CH", "addr_stree": "Planetenlaan" }, "geometry": { "type": "Point", "coordinates": [ 5.2583581, 51.3683221 ] } },
{ "type": "Feature", "properties": { "full_id": "n2828632659", "addr_house": "1", "amenity": "fire_station", "addr_city": "Eersel", "addr_postc": "5521RM", "addr_stree": "Dalemsedijk" }, "geometry": { "type": "Point", "coordinates": [ 5.3028727, 51.3607308 ] } },
{ "type": "Feature", "properties": { "full_id": "n2828754143", "addr_house": "20", "amenity": "fire_station", "addr_city": "Roden", "addr_postc": "9301ZW", "addr_stree": "Westeresch" }, "geometry": { "type": "Point", "coordinates": [ 6.4296254, 53.1474453 ] } },
{ "type": "Feature", "properties": { "full_id": "n2829328663", "addr_house": "3", "amenity": "fire_station", "addr_city": "Loppersum", "addr_postc": "9919HS", "addr_stree": "Pomonaweg" }, "geometry": { "type": "Point", "coordinates": [ 6.7461931, 53.334387 ] } },
{ "type": "Feature", "properties": { "full_id": "n2829623263", "addr_house": "5", "amenity": "fire_station", "addr_city": "Ossendrecht", "addr_postc": "4641HS", "addr_stree": "Doktersstraat" }, "geometry": { "type": "Point", "coordinates": [ 4.3242526, 51.3957501 ] } },
{ "type": "Feature", "properties": { "full_id": "n2829763938", "addr_house": "129", "amenity": "fire_station", "addr_city": "Putte", "addr_postc": "4645BD", "addr_stree": "Antwerpsestraat" }, "geometry": { "type": "Point", "coordinates": [ 4.3920303, 51.3601044 ] } },
{ "type": "Feature", "properties": { "full_id": "n2829801415", "addr_house": "33", "amenity": "fire_station", "addr_city": "Heeze", "addr_postc": "5591JH", "addr_stree": "Oude Stationsstraat" }, "geometry": { "type": "Point", "coordinates": [ 5.5773225, 51.3746003 ] } },
{ "type": "Feature", "properties": { "full_id": "n2829878874", "addr_house": "1a", "amenity": "fire_station", "addr_city": "Woubrugge", "addr_postc": "2481KM", "addr_stree": "Vrouwgeestweg" }, "geometry": { "type": "Point", "coordinates": [ 4.6384752, 52.1664868 ] } },
{ "type": "Feature", "properties": { "full_id": "n2830116125", "addr_house": "3", "amenity": "fire_station", "addr_city": "Huijbergen", "addr_postc": "4635AZ", "addr_stree": "Canadaplein" }, "geometry": { "type": "Point", "coordinates": [ 4.3772111, 51.4335628 ] } },
{ "type": "Feature", "properties": { "full_id": "n2830290532", "addr_house": null, "amenity": "fire_station", "addr_city": null, "addr_postc": null, "addr_stree": null }, "geometry": { "type": "Point", "coordinates": [ 4.9645339, 52.3412446 ] } },
{ "type": "Feature", "properties": { "full_id": "n2830938092", "addr_house": "66", "amenity": "fire_station", "addr_city": "Denekamp", "addr_postc": "7591BH", "addr_stree": "Nordhornsestraat" }, "geometry": { "type": "Point", "coordinates": [ 7.0115935, 52.3799282 ] } },
{ "type": "Feature", "properties": { "full_id": "n2831156354", "addr_house": "5", "amenity": "fire_station", "addr_city": "Bierum", "addr_postc": "9906PA", "addr_stree": "Spijksterweg" }, "geometry": { "type": "Point", "coordinates": [ 6.8548874, 53.3818296 ] } },
{ "type": "Feature", "properties": { "full_id": "n2831331155", "addr_house": "30", "amenity": "fire_station", "addr_city": "Woldendorp", "addr_postc": "9946PD", "addr_stree": "A.E. Gorterweg" }, "geometry": { "type": "Point", "coordinates": [ 7.0294361, 53.2740948 ] } },
{ "type": "Feature", "properties": { "full_id": "n2831360419", "addr_house": "4", "amenity": "fire_station", "addr_city": "Wagenborgen", "addr_postc": "9945NA", "addr_stree": "de Elzen" }, "geometry": { "type": "Point", "coordinates": [ 6.9273398, 53.2587457 ] } },
{ "type": "Feature", "properties": { "full_id": "n2831481235", "addr_house": "1", "amenity": "fire_station", "addr_city": "Aalten", "addr_postc": "7121DD", "addr_stree": "Tramstraat" }, "geometry": { "type": "Point", "coordinates": [ 6.5867579, 51.9274635 ] } },
{ "type": "Feature", "properties": { "full_id": "n2831640212", "addr_house": null, "amenity": "fire_station", "addr_city": null, "addr_postc": null, "addr_stree": null }, "geometry": { "type": "Point", "coordinates": [ 6.3956402, 53.3047232 ] } },
{ "type": "Feature", "properties": { "full_id": "n2832057420", "addr_house": "1", "amenity": "fire_station", "addr_city": "Delfzijl", "addr_postc": "9934RM", "addr_stree": "Hogelandsterweg" }, "geometry": { "type": "Point", "coordinates": [ 6.9152812, 53.3214428 ] } },
{ "type": "Feature", "properties": { "full_id": "n2832091106", "addr_house": null, "amenity": "fire_station", "addr_city": null, "addr_postc": null, "addr_stree": null }, "geometry": { "type": "Point", "coordinates": [ 6.4024512, 53.246149 ] } },
{ "type": "Feature", "properties": { "full_id": "n2832677934", "addr_house": "23", "amenity": "fire_station", "addr_city": "Veere", "addr_postc": "4351RC", "addr_stree": "Veerseweg" }, "geometry": { "type": "Point", "coordinates": [ 3.6650358, 51.5449939 ] } },
{ "type": "Feature", "properties": { "full_id": "n2833091620", "addr_house": "35", "amenity": "fire_station", "addr_city": "Niebert", "addr_postc": "9365PL", "addr_stree": "Jakob Hansens de Boerstraat" }, "geometry": { "type": "Point", "coordinates": [ 6.3292622, 53.1621915 ] } },
{ "type": "Feature", "properties": { "full_id": "n2834660109", "addr_house": "4", "amenity": "fire_station", "addr_city": "Kaatsheuvel", "addr_postc": "5171NG", "addr_stree": "Dodenauweg" }, "geometry": { "type": "Point", "coordinates": [ 5.0321747, 51.6504767 ] } },
{ "type": "Feature", "properties": { "full_id": "n2835357712", "addr_house": "7", "amenity": "fire_station", "addr_city": "Sleen", "addr_postc": "7841CG", "addr_stree": "Boelkenweg" }, "geometry": { "type": "Point", "coordinates": [ 6.8064028, 52.7748368 ] } },
{ "type": "Feature", "properties": { "full_id": "n2835393943", "addr_house": "28", "amenity": "fire_station", "addr_city": "Appingedam", "addr_postc": "9903AC", "addr_stree": "Dijkhuizenweg" }, "geometry": { "type": "Point", "coordinates": [ 6.850354, 53.3196806 ] } },
{ "type": "Feature", "properties": { "full_id": "n2836124997", "addr_house": null, "amenity": "fire_station", "addr_city": null, "addr_postc": null, "addr_stree": null }, "geometry": { "type": "Point", "coordinates": [ 4.4410998, 51.6914899 ] } },
{ "type": "Feature", "properties": { "full_id": "n2837900790", "addr_house": "36", "amenity": "fire_station", "addr_city": "Dronten", "addr_postc": "8251KP", "addr_stree": "Installatieweg" }, "geometry": { "type": "Point", "coordinates": [ 5.7212999, 52.5352241 ] } },
{ "type": "Feature", "properties": { "full_id": "n2838540624", "addr_house": "5", "amenity": "fire_station", "addr_city": "Krimpen aan de Lek", "addr_postc": "2931LC", "addr_stree": "Tiendweg" }, "geometry": { "type": "Point", "coordinates": [ 4.6393341, 51.897445 ] } },
{ "type": "Feature", "properties": { "full_id": "n2838991719", "addr_house": "30", "amenity": "fire_station", "addr_city": "Harkstede", "addr_postc": "9617BN", "addr_stree": "Dorpshuisweg" }, "geometry": { "type": "Point", "coordinates": [ 6.7016749, 53.2113769 ] } },
{ "type": "Feature", "properties": { "full_id": "n2839388407", "addr_house": "14", "amenity": "fire_station", "addr_city": "Maarheeze", "addr_postc": "6026CM", "addr_stree": "Molenstraat" }, "geometry": { "type": "Point", "coordinates": [ 5.6121035, 51.3099739 ] } },
{ "type": "Feature", "properties": { "full_id": "n2839420702", "addr_house": null, "amenity": "fire_station", "addr_city": null, "addr_postc": null, "addr_stree": null }, "geometry": { "type": "Point", "coordinates": [ 6.2835276, 53.2115762 ] } },
{ "type": "Feature", "properties": { "full_id": "n2840294077", "addr_house": null, "amenity": "fire_station", "addr_city": null, "addr_postc": null, "addr_stree": null }, "geometry": { "type": "Point", "coordinates": [ 4.9149027, 52.3487893 ] } },
{ "type": "Feature", "properties": { "full_id": "n2841724451", "addr_house": "21", "amenity": "fire_station", "addr_city": "Berkel-Enschot", "addr_postc": "5056AD", "addr_stree": "Burgemeester Panislaan" }, "geometry": { "type": "Point", "coordinates": [ 5.1384305, 51.5751541 ] } },
{ "type": "Feature", "properties": { "full_id": "n2842124240", "addr_house": null, "amenity": "fire_station", "addr_city": null, "addr_postc": null, "addr_stree": null }, "geometry": { "type": "Point", "coordinates": [ 6.6902276, 53.0980443 ] } },
{ "type": "Feature", "properties": { "full_id": "n2844251888", "addr_house": "2", "amenity": "fire_station", "addr_city": "Veendam", "addr_postc": "9641GN", "addr_stree": "Langeleegte" }, "geometry": { "type": "Point", "coordinates": [ 6.8676139, 53.1064506 ] } },
{ "type": "Feature", "properties": { "full_id": "n2844754074", "addr_house": "4A", "amenity": "fire_station", "addr_city": "Eerbeek", "addr_postc": "6961DH", "addr_stree": "Smeestraat" }, "geometry": { "type": "Point", "coordinates": [ 6.0656217, 52.105726 ] } },
{ "type": "Feature", "properties": { "full_id": "n2845994667", "addr_house": "80", "amenity": "fire_station", "addr_city": "Hellendoorn", "addr_postc": "7447AH", "addr_stree": "Ninaberlaan" }, "geometry": { "type": "Point", "coordinates": [ 6.4518058, 52.3864143 ] } },
{ "type": "Feature", "properties": { "full_id": "n2846677835", "addr_house": "44", "amenity": "fire_station", "addr_city": "Brummen", "addr_postc": "6971BM", "addr_stree": "Oude Eerbeekseweg" }, "geometry": { "type": "Point", "coordinates": [ 6.1464674, 52.0873339 ] } },
{ "type": "Feature", "properties": { "full_id": "n2846693317", "addr_house": "137b", "amenity": "fire_station", "addr_city": "Volendam", "addr_postc": "1131DH", "addr_stree": "Julianaweg" }, "geometry": { "type": "Point", "coordinates": [ 5.0772796, 52.5007379 ] } },
{ "type": "Feature", "properties": { "full_id": "n2849005582", "addr_house": "33", "amenity": "fire_station", "addr_city": "Amsterdam", "addr_postc": "1028BK", "addr_stree": "Dorpsweg Ransdorp" }, "geometry": { "type": "Point", "coordinates": [ 4.994269, 52.392507 ] } },
{ "type": "Feature", "properties": { "full_id": "n2849422234", "addr_house": "48J", "amenity": "fire_station", "addr_city": "Lage Zwaluwe", "addr_postc": "4926AH", "addr_stree": "Kruisstraat" }, "geometry": { "type": "Point", "coordinates": [ 4.6893114, 51.71174 ] } },
{ "type": "Feature", "properties": { "full_id": "n2851634921", "addr_house": "29", "amenity": "fire_station", "addr_city": "Someren", "addr_postc": "5712JV", "addr_stree": "Loovebaan" }, "geometry": { "type": "Point", "coordinates": [ 5.7102226, 51.3772288 ] } },
{ "type": "Feature", "properties": { "full_id": "n2855930370", "addr_house": "1", "amenity": "fire_station", "addr_city": "Harderwijk", "addr_postc": "3842AZ", "addr_stree": "Maltezerlaan" }, "geometry": { "type": "Point", "coordinates": [ 5.6253469, 52.344246 ] } },
{ "type": "Feature", "properties": { "full_id": "n2856345382", "addr_house": "21", "amenity": "fire_station", "addr_city": "Huissen", "addr_postc": "6852AC", "addr_stree": "Kampstuk" }, "geometry": { "type": "Point", "coordinates": [ 5.9289072, 51.9369511 ] } },
{ "type": "Feature", "properties": { "full_id": "n2858960557", "addr_house": "11", "amenity": "fire_station", "addr_city": "Cuijk", "addr_postc": "5431SP", "addr_stree": "Gildekamp" }, "geometry": { "type": "Point", "coordinates": [ 5.8660261, 51.7315755 ] } },
{ "type": "Feature", "properties": { "full_id": "n2861621606", "addr_house": "1A", "amenity": "fire_station", "addr_city": "Sint Anthonis", "addr_postc": "5845AX", "addr_stree": "Breestraat" }, "geometry": { "type": "Point", "coordinates": [ 5.8793714, 51.6295875 ] } },
{ "type": "Feature", "properties": { "full_id": "n2862315109", "addr_house": "2", "amenity": "fire_station", "addr_city": "Noordwolde", "addr_postc": "8391AD", "addr_stree": "Hellingstraat" }, "geometry": { "type": "Point", "coordinates": [ 6.13797, 52.8932785 ] } },
{ "type": "Feature", "properties": { "full_id": "n2863512052", "addr_house": "12", "amenity": "fire_station", "addr_city": "Oldebroek", "addr_postc": "8096AP", "addr_stree": "Spronksweg" }, "geometry": { "type": "Point", "coordinates": [ 5.8985606, 52.4463318 ] } },
{ "type": "Feature", "properties": { "full_id": "n2864141164", "addr_house": "8", "amenity": "fire_station", "addr_city": "Elburg", "addr_postc": "8081RK", "addr_stree": "Oostendorperstraatweg" }, "geometry": { "type": "Point", "coordinates": [ 5.8632947, 52.4436932 ] } },
{ "type": "Feature", "properties": { "full_id": "n2864700902", "addr_house": "4", "amenity": "fire_station", "addr_city": "Den Helder", "addr_postc": "1784MR", "addr_stree": "Bastiondreef" }, "geometry": { "type": "Point", "coordinates": [ 4.7530367, 52.9411747 ] } },
{ "type": "Feature", "properties": { "full_id": "n2868902447", "addr_house": "2", "amenity": "fire_station", "addr_city": "Maarssen", "addr_postc": "3604AC", "addr_stree": "Binnenweg" }, "geometry": { "type": "Point", "coordinates": [ 5.0468318, 52.1326369 ] } },
{ "type": "Feature", "properties": { "full_id": "n2868939780", "addr_house": "5", "amenity": "fire_station", "addr_city": "Monnickendam", "addr_postc": "1141HL", "addr_stree": "De Werf" }, "geometry": { "type": "Point", "coordinates": [ 5.0388715, 52.4565674 ] } },
{ "type": "Feature", "properties": { "full_id": "n2870586812", "addr_house": "2C", "amenity": "fire_station", "addr_city": "Wanroij", "addr_postc": "5446PJ", "addr_stree": "Peelstraat" }, "geometry": { "type": "Point", "coordinates": [ 5.8286952, 51.6537378 ] } },
{ "type": "Feature", "properties": { "full_id": "n2872354929", "addr_house": "17", "amenity": "fire_station", "addr_city": "Geldrop", "addr_postc": "5664TH", "addr_stree": "Laan der Vier Heemskinderen" }, "geometry": { "type": "Point", "coordinates": [ 5.5618449, 51.4179213 ] } },
{ "type": "Feature", "properties": { "full_id": "n2872977991", "addr_house": "2", "amenity": "fire_station", "addr_city": "Deurne", "addr_postc": "5751XM", "addr_stree": "Antoon Coolenlaan" }, "geometry": { "type": "Point", "coordinates": [ 5.7970977, 51.4611984 ] } },
{ "type": "Feature", "properties": { "full_id": "n2875000855", "addr_house": "211", "amenity": "fire_station", "addr_city": "Oostzaan", "addr_postc": "1511EE", "addr_stree": "Kerkstraat" }, "geometry": { "type": "Point", "coordinates": [ 4.8717385, 52.4392027 ] } },
{ "type": "Feature", "properties": { "full_id": "n2875288014", "addr_house": "2", "amenity": "fire_station", "addr_city": "Mijdrecht", "addr_postc": "3641RM", "addr_stree": "Industrieweg" }, "geometry": { "type": "Point", "coordinates": [ 4.868853, 52.2063625 ] } },
{ "type": "Feature", "properties": { "full_id": "n2876288427", "addr_house": "15", "amenity": "fire_station", "addr_city": "Mierlo", "addr_postc": "5731ST", "addr_stree": "Bijenkorf" }, "geometry": { "type": "Point", "coordinates": [ 5.6084189, 51.443142 ] } },
{ "type": "Feature", "properties": { "full_id": "n2876571226", "addr_house": "20", "amenity": "fire_station", "addr_city": "Utrecht", "addr_postc": "3523CC", "addr_stree": "Helling" }, "geometry": { "type": "Point", "coordinates": [ 5.1225424, 52.0767888 ] } },
{ "type": "Feature", "properties": { "full_id": "n2884844735", "addr_house": "25", "amenity": "fire_station", "addr_city": "Uitgeest", "addr_postc": "1911DB", "addr_stree": "Molenwerf" }, "geometry": { "type": "Point", "coordinates": [ 4.717221, 52.535926 ] } },
{ "type": "Feature", "properties": { "full_id": "n2886450359", "addr_house": "186", "amenity": "fire_station", "addr_city": "Krommenie", "addr_postc": "1562AJ", "addr_stree": "Kervelstraat" }, "geometry": { "type": "Point", "coordinates": [ 4.7576963, 52.504331 ] } },
{ "type": "Feature", "properties": { "full_id": "n2891875913", "addr_house": "181", "amenity": "fire_station", "addr_city": "Ermelo", "addr_postc": "3851EC", "addr_stree": "Oude Telgterweg" }, "geometry": { "type": "Point", "coordinates": [ 5.6071109, 52.2913335 ] } },
{ "type": "Feature", "properties": { "full_id": "n2893197911", "addr_house": "5", "amenity": "fire_station", "addr_city": "Grave", "addr_postc": "5361HZ", "addr_stree": "Stoofweg" }, "geometry": { "type": "Point", "coordinates": [ 5.7354897, 51.7536516 ] } },
{ "type": "Feature", "properties": { "full_id": "n2893288927", "addr_house": "8", "amenity": "fire_station", "addr_city": "Nieuwe Pekela", "addr_postc": "9663AW", "addr_stree": "Pekelwerk" }, "geometry": { "type": "Point", "coordinates": [ 6.9703198, 53.0818797 ] } },
{ "type": "Feature", "properties": { "full_id": "n2894000883", "addr_house": "74", "amenity": "fire_station", "addr_city": "Zaandam", "addr_postc": "1507AJ", "addr_stree": "Westzanerdijk" }, "geometry": { "type": "Point", "coordinates": [ 4.8141527, 52.4357061 ] } },
{ "type": "Feature", "properties": { "full_id": "n2896082917", "addr_house": "2", "amenity": "fire_station", "addr_city": "Zaandam", "addr_postc": "1501XX", "addr_stree": "Jan Bonekampstraat" }, "geometry": { "type": "Point", "coordinates": [ 4.8347194, 52.4424349 ] } },
{ "type": "Feature", "properties": { "full_id": "n2897412346", "addr_house": "34A", "amenity": "fire_station", "addr_city": "Bellingwolde", "addr_postc": "9695BA", "addr_stree": "Blijhamsterweg" }, "geometry": { "type": "Point", "coordinates": [ 7.1371967, 53.1026281 ] } },
{ "type": "Feature", "properties": { "full_id": "n2901026513", "addr_house": "72", "amenity": "fire_station", "addr_city": "Aarle-Rixtel", "addr_postc": "5735JB", "addr_stree": "De Duivenakker" }, "geometry": { "type": "Point", "coordinates": [ 5.645128, 51.5064331 ] } },
{ "type": "Feature", "properties": { "full_id": "n2903012644", "addr_house": "8", "amenity": "fire_station", "addr_city": "Stadskanaal", "addr_postc": "9502EZ", "addr_stree": "Veenstraat" }, "geometry": { "type": "Point", "coordinates": [ 6.967062, 52.9799759 ] } },
{ "type": "Feature", "properties": { "full_id": "n2904176385", "addr_house": "1", "amenity": "fire_station", "addr_city": "Vlagtwedde", "addr_postc": "9541EG", "addr_stree": "Nieuwe weg" }, "geometry": { "type": "Point", "coordinates": [ 7.1047893, 53.0271506 ] } },
{ "type": "Feature", "properties": { "full_id": "n2905608718", "addr_house": "100", "amenity": "fire_station", "addr_city": "Goes", "addr_postc": "4461LR", "addr_stree": "Oranjeweg" }, "geometry": { "type": "Point", "coordinates": [ 3.9052233, 51.4993089 ] } },
{ "type": "Feature", "properties": { "full_id": "n2914045675", "addr_house": "71b", "amenity": "fire_station", "addr_city": "Zeeland", "addr_postc": "5411AT", "addr_stree": "Langenboomseweg" }, "geometry": { "type": "Point", "coordinates": [ 5.6890643, 51.6993445 ] } },
{ "type": "Feature", "properties": { "full_id": "n2914955992", "addr_house": "24", "amenity": "fire_station", "addr_city": "Voorst", "addr_postc": "7383CA", "addr_stree": "Wilhelminaweg" },